{
  "shops": [
    {
      "name": "ラウンドワン札幌すすきの",
      "address": "北海道 札幌市中央区 南五条西 3-6-1",
      "machines": 5,
      "lat": 43.054536,
      "lng": 141.354524,
      "area": "JP-01"
    },
    {
      "name": "東急百貨店さっぽろアミューズパーク",
      "address": "北海道 札幌市中央区 北四条西 2-1　東急百貨店さっぽろ店9F",
      "machines": 4,
      "lat": 43.067552,
      "lng": 141.352709,
      "area": "JP-01"
    },
    {
      "name": "namcoアリオ札幌",
      "address": "北海道 札幌市東区 北七条東 9-2-20　アリオ札幌スパ・レジャー館2F　233区画",
      "machines": 4,
      "lat": 43.07117,
      "lng": 141.370255,
      "area": "JP-01"
    },
    {
      "name": "ラウンドワンスタジアム札幌北21条",
      "address": "北海道 札幌市東区 北二十一条東 1-1-21",
      "machines": 4,
      "lat": 43.086887,
      "lng": 141.34985,
      "area": "JP-01"
    },
    {
      "name": "namcoウイングベイ小樽",
      "address": "北海道 小樽市 築港 11-5　ウイングベイ小樽5番街2・3F",
      "machines": 4,
      "lat": 43.183941,
      "lng": 141.02231,
      "area": "JP-01"
    },
    {
      "name": "namcoサッポロファクトリー",
      "address": "北海道 札幌市中央区 北一条東 4-1-1　サッポロファクトリー1条館内",
      "machines": 3,
      "lat": 43.064303,
      "lng": 141.363013,
      "area": "JP-01"
    },
    {
      "name": "GiGO すすきの",
      "address": "北海道 札幌市中央区 南三条西 4-1-1",
      "machines": 3,
      "lat": 43.056435,
      "lng": 141.352831,
      "area": "JP-01"
    },
    {
      "name": "タイトーステーション札幌狸小路4丁目",
      "address": "北海道 札幌市中央区 南二条西 4-2-11",
      "machines": 3,
      "lat": 43.057355,
      "lng": 141.35231,
      "area": "JP-01"
    },
    {
      "name": "ゲームランド新さっぽろ",
      "address": "北海道 札幌市厚別区 厚別中央二条 5-7　新さっぽろアークシティ　カテプリ新さっぽろ3F",
      "machines": 3,
      "lat": 43.037441,
      "lng": 141.472478,
      "area": "JP-01"
    },
    {
      "name": "キャッツアイ新札幌",
      "address": "北海道 札幌市厚別区 厚別東五条 1　ホーマックスーパーデポ厚別東店横",
      "machines": 3,
      "lat": 43.045268,
      "lng": 141.475797,
      "area": "JP-01"
    },
    {
      "name": "ラウンドワンスタジアム札幌・白石本通",
      "address": "北海道 札幌市白石区 本通 16-北1-50",
      "machines": 3,
      "lat": 43.036928,
      "lng": 141.432887,
      "area": "JP-01"
    },
    {
      "name": "namcoラソラ札幌",
      "address": "北海道 札幌市白石区 東札幌三条 1-1-1　ラソラ札幌Atown 2F",
      "machines": 3,
      "lat": 43.054045,
      "lng": 141.383411,
      "area": "JP-01"
    },
    {
      "name": "ラウンドワンスタジアム函館",
      "address": "北海道 函館市 西桔梗町 848-11",
      "machines": 3,
      "lat": 41.82459,
      "lng": 140.71745,
      "area": "JP-01"
    },
    {
      "name": "ソユーゲームフィールド旭川駅前",
      "address": "北海道 旭川市 宮下通 7-2-5　イオンモール旭川駅前4F",
      "machines": 3,
      "lat": 43.764006,
      "lng": 142.357115,
      "area": "JP-01"
    },
    {
      "name": "ラウンドワンスタジアム旭川",
      "address": "北海道 旭川市 永山三条 1-4-7",
      "machines": 3,
      "lat": 43.786538,
      "lng": 142.397245,
      "area": "JP-01"
    },
    {
      "name": "HapipiLand旭川",
      "address": "北海道 旭川市 永山十二条 3　ウェスタンパワーズ2F",
      "machines": 3,
      "lat": 43.778433,
      "lng": 142.412167,
      "area": "JP-01"
    },
    {
      "name": "ファンタジープラザ西帯広",
      "address": "北海道 帯広市 西二十一条南 4-1　MEGAドン・キホーテ西帯広店2F",
      "machines": 3,
      "lat": 42.91209,
      "lng": 143.143842,
      "area": "JP-01"
    },
    {
      "name": "キャッツアイ苫小牧駅前",
      "address": "北海道 苫小牧市 木場町 1-3",
      "machines": 3,
      "lat": 42.64178,
      "lng": 141.598406,
      "area": "JP-01"
    },
    {
      "name": "GiGO BOWLイオンモール苫小牧",
      "address": "北海道 苫小牧市 柳町 3-1-20　イオンモール苫小牧2F",
      "machines": 3,
      "lat": 42.655742,
      "lng": 141.64089,
      "area": "JP-01"
    },
    {
      "name": "タイトーFステーションイオン千歳",
      "address": "北海道 千歳市 栄町 6-51　イオン千歳店2F",
      "machines": 3,
      "lat": 42.828856,
      "lng": 141.648096,
      "area": "JP-01"
    },
    {
      "name": "モーリーファンタジー札幌桑園",
      "address": "北海道 札幌市中央区 北八条西 14-28　イオン札幌桑園SC　イオン札幌桑園店2F",
      "machines": 2,
      "lat": 43.069389,
      "lng": 141.333224,
      "area": "JP-01"
    },
    {
      "name": "タイトーステーション札幌狸小路2丁目",
      "address": "北海道 札幌市中央区 南三条 西2-14　ニコービル",
      "machines": 2,
      "lat": 43.057336,
      "lng": 141.355453,
      "area": "JP-01"
    },
    {
      "name": "モーリーファンタジー札幌麻生",
      "address": "北海道 札幌市北区 北三十九条西 4-1-5　イオン札幌麻生店4F",
      "machines": 2,
      "lat": 43.107259,
      "lng": 141.339671,
      "area": "JP-01"
    },
    {
      "name": "GiGO 札幌駅西口",
      "address": "北海道 札幌市北区 北六条西 6　JR高架下",
      "machines": 2,
      "lat": 43.067531,
      "lng": 141.34628,
      "area": "JP-01"
    },
    {
      "name": "グルグルイトーヨーカドー屯田",
      "address": "北海道 札幌市北区 屯田八条 3-5-1　イトーヨーカドー屯田店2F",
      "machines": 2,
      "lat": 43.140227,
      "lng": 141.340922,
      "area": "JP-01"
    },
    {
      "name": "キャッツアイ新川",
      "address": "北海道 札幌市北区 新川二条 7-1-7",
      "machines": 2,
      "lat": 43.100736,
      "lng": 141.310272,
      "area": "JP-01"
    },
    {
      "name": "キャッツアイ篠路",
      "address": "北海道 札幌市北区 篠路一条 4-6-30",
      "machines": 2,
      "lat": 43.140652,
      "lng": 141.357191,
      "area": "JP-01"
    },
    {
      "name": "げーむぱーくぎゃらくしー西友厚別",
      "address": "北海道 札幌市厚別区 厚別西四条 6-700-126　西友厚別店2F",
      "machines": 2,
      "lat": 43.053658,
      "lng": 141.469174,
      "area": "JP-01"
    },
    {
      "name": "GiGO 西友手稲",
      "address": "北海道 札幌市手稲区 前田一条 11　西友手稲店3F",
      "machines": 2,
      "lat": 43.120345,
      "lng": 141.245427,
      "area": "JP-01"
    },
    {
      "name": "モーリーファンタジー手稲山口",
      "address": "北海道 札幌市手稲区 明日風 6-1-1　イオン札幌手稲山口SC　イオンスーパーセンター手稲山口店1F",
      "machines": 2,
      "lat": 43.14188,
      "lng": 141.233892,
      "area": "JP-01"
    },
    {
      "name": "キャッツアイ宮の沢",
      "address": "北海道 札幌市手稲区 西宮の沢五条 2-11-15",
      "machines": 2,
      "lat": 43.096392,
      "lng": 141.257657,
      "area": "JP-01"
    },
    {
      "name": "モーリーファンタジー札幌元町",
      "address": "北海道 札幌市東区 北三十一条東 15-1-1　イオン札幌元町SC　イオン札幌元町店3F",
      "machines": 2,
      "lat": 43.101585,
      "lng": 141.368225,
      "area": "JP-01"
    },
    {
      "name": "アドアーズ札幌北42条",
      "address": "北海道 札幌市東区 北四十二条東 7-1-1　ドン・キホーテ北42条店2F",
      "machines": 2,
      "lat": 43.112034,
      "lng": 141.355326,
      "area": "JP-01"
    },
    {
      "name": "ソユーゲームフィールド札幌苗穂",
      "address": "北海道 札幌市東区 東苗穂二条 3-1-1　イオンモール札幌苗穂2F",
      "machines": 2,
      "lat": 43.079836,
      "lng": 141.403812,
      "area": "JP-01"
    },
    {
      "name": "モーリーファンタジー札幌苗穂",
      "address": "北海道 札幌市東区 東苗穂二条 3-1-1　イオンモール札幌苗穂　イオン札幌苗穂店2F",
      "machines": 2,
      "lat": 43.079836,
      "lng": 141.403812,
      "area": "JP-01"
    },
    {
      "name": "キャッツアイ東苗穂",
      "address": "北海道 札幌市東区 東苗穂六条 2-1-25",
      "machines": 2,
      "lat": 43.092377,
      "lng": 141.406961,
      "area": "JP-01"
    },
    {
      "name": "モーリーファンタジー札幌平岡",
      "address": "北海道 札幌市清田区 平岡三条 5-3-1　イオンモール札幌平岡　イオン札幌平岡店2F",
      "machines": 2,
      "lat": 42.997257,
      "lng": 141.458734,
      "area": "JP-01"
    },
    {
      "name": "キャッツアイ清田",
      "address": "北海道 札幌市清田区 清田一条 1-20-1",
      "machines": 2,
      "lat": 43.002843,
      "lng": 141.436304,
      "area": "JP-01"
    },
    {
      "name": "VEGAGIO美しが丘",
      "address": "北海道 札幌市清田区 美しが丘一条 7-6-10　ベガロポリス美しが丘店内",
      "machines": 2,
      "lat": 42.980932,
      "lng": 141.463502,
      "area": "JP-01"
    },
    {
      "name": "ソユーゲームフィールド札幌発寒",
      "address": "北海道 札幌市西区 発寒八条 12-1-1　イオンモール札幌発寒3F",
      "machines": 2,
      "lat": 43.096422,
      "lng": 141.276495,
      "area": "JP-01"
    },
    {
      "name": "モーリーファンタジー札幌発寒",
      "address": "北海道 札幌市西区 発寒八条 12-1-1　イオンモール札幌発寒　イオン札幌発寒店3F",
      "machines": 2,
      "lat": 43.096164,
      "lng": 141.276956,
      "area": "JP-01"
    },
    {
      "name": "GiGO 函館昭和",
      "address": "北海道 函館市 昭和 3-24-18　ゲオ函館昭和店内",
      "machines": 2,
      "lat": 41.819233,
      "lng": 140.734544,
      "area": "JP-01"
    },
    {
      "name": "GiGO MEGAドン・キホーテ函館",
      "address": "北海道 函館市 美原 1-7-1　MEGAドン・キホーテ函館店2F",
      "machines": 2,
      "lat": 41.813509,
      "lng": 140.756295,
      "area": "JP-01"
    },
    {
      "name": "ソユーゲームフィールド旭川西",
      "address": "北海道 旭川市 緑町 23-2161-3　イオンモール旭川西3F",
      "machines": 2,
      "lat": 43.794087,
      "lng": 142.32593,
      "area": "JP-01"
    },
    {
      "name": "モーリーファンタジー旭川西",
      "address": "北海道 旭川市 緑町 23-2161-3　イオンモール旭川西　イオン旭川西店2F",
      "machines": 2,
      "lat": 43.7937,
      "lng": 142.327282,
      "area": "JP-01"
    },
    {
      "name": "MEGAGET室蘭",
      "address": "北海道 室蘭市 中島本町 2-8-1",
      "machines": 2,
      "lat": 42.353406,
      "lng": 141.014425,
      "area": "JP-01"
    },
    {
      "name": "タイトーステーションイオンモール釧路昭和",
      "address": "北海道 釧路市 昭和中央 4-18-1　イオンモール釧路昭和2F",
      "machines": 2,
      "lat": 43.025899,
      "lng": 144.359296,
      "area": "JP-01"
    },
    {
      "name": "GiGO ドリームタウン白樺",
      "address": "北海道 帯広市 白樺十六条西 2　ドリームタウン白樺内",
      "machines": 2,
      "lat": 42.919499,
      "lng": 143.174171,
      "area": "JP-01"
    },
    {
      "name": "わいわいランド帯広",
      "address": "北海道 帯広市 稲田町南8線西 10-1　イトーヨーカドー帯広店2F",
      "machines": 2,
      "lat": 42.890028,
      "lng": 143.198204,
      "area": "JP-01"
    },
    {
      "name": "GiGO 帯広稲田",
      "address": "北海道 帯広市 稲田町南8線西 12-1　帯広スズランボウル内",
      "machines": 2,
      "lat": 42.890206,
      "lng": 143.19646,
      "area": "JP-01"
    },
    {
      "name": "アミューズメントシティ東武イーストモール",
      "address": "北海道 北見市 端野町三区 572-1　東武イーストモール内",
      "machines": 2,
      "lat": 43.841426,
      "lng": 143.928696,
      "area": "JP-01"
    },
    {
      "name": "GiGO 北見",
      "address": "北海道 北見市 西三輪 5-1-16",
      "machines": 2,
      "lat": 43.796546,
      "lng": 143.842546,
      "area": "JP-01"
    },
    {
      "name": "モーリーファンタジー苫小牧",
      "address": "北海道 苫小牧市 柳町 3-1-20　イオンモール苫小牧　イオン苫小牧店2F",
      "machines": 2,
      "lat": 42.656319,
      "lng": 141.642037,
      "area": "JP-01"
    },
    {
      "name": "PALO江別",
      "address": "北海道 江別市 幸町 35　イオン江別店3F",
      "machines": 2,
      "lat": 43.096978,
      "lng": 141.533645,
      "area": "JP-01"
    },
    {
      "name": "モーリーファンタジー三笠",
      "address": "北海道 三笠市 岡山 1059-1　イオン三笠SC　イオンスーパーセンター三笠店1F",
      "machines": 2,
      "lat": 43.243582,
      "lng": 141.805511,
      "area": "JP-01"
    },
    {
      "name": "アピナ新千歳空港",
      "address": "北海道 千歳市 美々 1　新千歳空港（国内線）旅客ターミナルビル4F",
      "machines": 2,
      "lat": 42.787127,
      "lng": 141.68056,
      "area": "JP-01"
    },
    {
      "name": "PALO滝川",
      "address": "北海道 滝川市 東町 2-29-1　イオン滝川店1F",
      "machines": 2,
      "lat": 43.554168,
      "lng": 141.931215,
      "area": "JP-01"
    },
    {
      "name": "モーリーファンタジー登別",
      "address": "北海道 登別市 若山町 4-33-1　イオン登別店2F",
      "machines": 2,
      "lat": 42.381331,
      "lng": 141.068466,
      "area": "JP-01"
    },
    {
      "name": "キャッツアイ恵庭",
      "address": "北海道 恵庭市 住吉町 2-9-1",
      "machines": 2,
      "lat": 42.875885,
      "lng": 141.583461,
      "area": "JP-01"
    },
    {
      "name": "アドアーズインターヴィレッジ大曲",
      "address": "北海道 北広島市 大曲幸町 6-1　インターヴィレッジ大曲2F",
      "machines": 2,
      "lat": 42.96918,
      "lng": 141.469658,
      "area": "JP-01"
    },
    {
      "name": "モーリーファンタジー上磯",
      "address": "北海道 北斗市 七重浜 4-44-1　イオン上磯店1F",
      "machines": 2,
      "lat": 41.82126,
      "lng": 140.712447,
      "area": "JP-01"
    },
    {
      "name": "MEGAGET釧路",
      "address": "北海道 釧路郡釧路町 木場 2-1",
      "machines": 2,
      "lat": 43.009205,
      "lng": 144.409919,
      "area": "JP-01"
    },
    {
      "name": "MEGAGET釧路",
      "address": "北海道 釧路郡釧路町 木場 2-1",
      "machines": 2,
      "lat": 43.009205,
      "lng": 144.409919,
      "area": "JP-01"
    },
    {
      "name": "モーリーファンタジー中標津",
      "address": "北海道 標津郡中標津町 南町 3-10　東武サウスヒルズ1F",
      "machines": 2,
      "lat": 43.53624,
      "lng": 144.977804,
      "area": "JP-01"
    },
    {
      "name": "GiGO BOWLノルベサ",
      "address": "北海道 札幌市中央区 南三条西 5-1-1　ノルベサ6F",
      "machines": 1,
      "lat": 43.056137,
      "lng": 141.350894,
      "area": "JP-01"
    },
    {
      "name": "GiGO ココノススキノ",
      "address": "北海道 札幌市中央区 南四条西 4-1-1　COCONO SUSUKINO 3F",
      "machines": 1,
      "lat": 43.053771,
      "lng": 141.337006,
      "area": "JP-01"
    },
    {
      "name": "アミューズメントスペースジョイランド定山渓ビューホテル",
      "address": "北海道 札幌市南区 定山渓温泉東 2　定山渓ビューホテル内",
      "machines": 1,
      "lat": 42.968979,
      "lng": 141.167416,
      "area": "JP-01"
    },
    {
      "name": "トム・ソーヤのなかまたち。札幌藻岩",
      "address": "北海道 札幌市南区 川沿二条 2-1-1　イオン札幌藻岩店2F",
      "machines": 1,
      "lat": 42.999313,
      "lng": 141.336483,
      "area": "JP-01"
    },
    {
      "name": "モーリーファンタジー新さっぽろ",
      "address": "北海道 札幌市厚別区 厚別中央二条 5-6-2　新さっぽろアークシティdUo2　2F",
      "machines": 1,
      "lat": 43.038058,
      "lng": 141.471698,
      "area": "JP-01"
    },
    {
      "name": "ていね温泉ほのか",
      "address": "北海道 札幌市手稲区 富丘二条 3-2-1　ゲームコーナー",
      "machines": 1,
      "lat": 43.104879,
      "lng": 141.25275,
      "area": "JP-01"
    },
    {
      "name": "ラッキー星置駅前",
      "address": "北海道 札幌市手稲区 星置一条 2-1-1　ラッキー星置駅前店内ゲームコーナー1F",
      "machines": 1,
      "lat": 43.132866,
      "lng": 141.211645,
      "area": "JP-01"
    },
    {
      "name": "タイトーステーションイオンモール札幌平岡",
      "address": "北海道 札幌市清田区 平岡三条 5-3-1　イオンモール札幌平岡2F",
      "machines": 1,
      "lat": 42.997241,
      "lng": 141.458713,
      "area": "JP-01"
    },
    {
      "name": "湯の郷 絢ほのか",
      "address": "北海道 札幌市清田区 清田二条 3-2-26　ゲームコーナー",
      "machines": 1,
      "lat": 43.001199,
      "lng": 141.435743,
      "area": "JP-01"
    },
    {
      "name": "モーリーファンタジー東札幌",
      "address": "北海道 札幌市白石区 東札幌三条 2-1　イオン東札幌2F",
      "machines": 1,
      "lat": 43.052723,
      "lng": 141.385223,
      "area": "JP-01"
    },
    {
      "name": "キャッツアイ栄通",
      "address": "北海道 札幌市白石区 栄通 19-11-43",
      "machines": 1,
      "lat": 43.025348,
      "lng": 141.436631,
      "area": "JP-01"
    },
    {
      "name": "わいわいランド琴似",
      "address": "北海道 札幌市西区 琴似二条 1-4-1　イトーヨーカドー琴似店3F",
      "machines": 1,
      "lat": 43.080733,
      "lng": 141.30593,
      "area": "JP-01"
    },
    {
      "name": "モーリーファンタジー札幌琴似",
      "address": "北海道 札幌市西区 琴似二条 4-2-2　イオン札幌琴似店3F",
      "machines": 1,
      "lat": 43.076764,
      "lng": 141.30298,
      "area": "JP-01"
    },
    {
      "name": "キャッツアイミュンヘン大橋",
      "address": "北海道 札幌市豊平区 平岸一条 23-801-1",
      "machines": 1,
      "lat": 43.013979,
      "lng": 141.355013,
      "area": "JP-01"
    },
    {
      "name": "Bee-Qシーナシーナ福住",
      "address": "北海道 札幌市豊平区 福住二条 1-2-5　CiiNACiiNA福住3F",
      "machines": 1,
      "lat": 43.019872,
      "lng": 141.403495,
      "area": "JP-01"
    },
    {
      "name": "イオン札幌西岡",
      "address": "北海道 札幌市豊平区 西岡三条 3-4-1　イオン札幌西岡店2Fゲームコーナー",
      "machines": 1,
      "lat": 43.018465,
      "lng": 141.387296,
      "area": "JP-01"
    },
    {
      "name": "BIG BANG 函館",
      "address": "北海道 函館市 梁川町 9-3　パボッツ函館3F",
      "machines": 1,
      "lat": 41.789039,
      "lng": 140.744381,
      "area": "JP-01"
    },
    {
      "name": "コープさっぽろ湯川店ファミリーランド",
      "address": "北海道 函館市 湯川町 1-34-15　コープさっぽろ湯川店2F",
      "machines": 1,
      "lat": 41.781434,
      "lng": 140.782284,
      "area": "JP-01"
    },
    {
      "name": "モーリーファンタジー湯川",
      "address": "北海道 函館市 湯川町 3-14-5　イオン湯川店1・2F",
      "machines": 1,
      "lat": 41.777661,
      "lng": 140.794031,
      "area": "JP-01"
    },
    {
      "name": "ピーターパンと仲間たち函館",
      "address": "北海道 函館市 美原 1-3-1　グランディールイチイ1F",
      "machines": 1,
      "lat": 41.813443,
      "lng": 140.758461,
      "area": "JP-01"
    },
    {
      "name": "あそびパークウイングベイ小樽",
      "address": "北海道 小樽市 築港 11-1　ウイングベイ小樽1番街3F",
      "machines": 1,
      "lat": 43.182522,
      "lng": 141.026117,
      "area": "JP-01"
    },
    {
      "name": "モーリーファンタジー旭川パルプ",
      "address": "北海道 旭川市 パルプ町一条 2-505-2　SCパルプタウン1F",
      "machines": 1,
      "lat": 43.775108,
      "lng": 142.38436,
      "area": "JP-01"
    },
    {
      "name": "GiGO メガセンタートライアル旭川",
      "address": "北海道 旭川市 六条通 14-64　メガセンタートライアル旭川2F",
      "machines": 1,
      "lat": 43.76879,
      "lng": 142.369611,
      "area": "JP-01"
    },
    {
      "name": "アミューズメントスペース遊ランド春光",
      "address": "北海道 旭川市 春光一条 7-2-25　第2ダイワビル2F",
      "machines": 1,
      "lat": 43.798197,
      "lng": 142.374036,
      "area": "JP-01"
    },
    {
      "name": "ファンタジープラザ旭川",
      "address": "北海道 旭川市 春光一条 8-1-65　MEGAドン・キホーテ旭川店2F",
      "machines": 1,
      "lat": 43.798536,
      "lng": 142.378164,
      "area": "JP-01"
    },
    {
      "name": "ゲームフィールド旭川春光",
      "address": "北海道 旭川市 春光町 10　イオン旭川春光SC内",
      "machines": 1,
      "lat": 43.792775,
      "lng": 142.35565,
      "area": "JP-01"
    },
    {
      "name": "タイトーFステーションイオン旭川永山",
      "address": "北海道 旭川市 永山三条 12-2-11　イオン旭川永山店3F",
      "machines": 1,
      "lat": 43.801284,
      "lng": 142.420948,
      "area": "JP-01"
    },
    {
      "name": "アミューズメントスペース遊ランド西御料",
      "address": "北海道 旭川市 西御料五条 2-1",
      "machines": 1,
      "lat": 43.723872,
      "lng": 142.368868,
      "area": "JP-01"
    },
    {
      "name": "アミューズメントランドイオン室蘭",
      "address": "北海道 室蘭市 東町 2-4-32　イオン室蘭店2F",
      "machines": 1,
      "lat": 42.345101,
      "lng": 141.026188,
      "area": "JP-01"
    },
    {
      "name": "GiGO 室蘭",
      "address": "北海道 室蘭市 東町 4-31-3",
      "machines": 1,
      "lat": 42.342173,
      "lng": 141.025957,
      "area": "JP-01"
    },
    {
      "name": "モーリーファンタジー釧路昭和",
      "address": "北海道 釧路市 昭和中央 4-18-1　イオンモール釧路昭和　イオン釧路昭和店2F",
      "machines": 1,
      "lat": 43.027091,
      "lng": 144.360348,
      "area": "JP-01"
    },
    {
      "name": "ハロータイトー釧路貝塚",
      "address": "北海道 釧路市 貝塚 3-2-28",
      "machines": 1,
      "lat": 42.99621,
      "lng": 144.410224,
      "area": "JP-01"
    },
    {
      "name": "キッズパーク イオン帯広",
      "address": "北海道 帯広市 西四条南 20-1　イオン帯広店2F",
      "machines": 1,
      "lat": 42.908887,
      "lng": 143.200495,
      "area": "JP-01"
    },
    {
      "name": "BIG BANG 北見",
      "address": "北海道 北見市 中央三輪 7-446-1",
      "machines": 1,
      "lat": 43.796972,
      "lng": 143.851408,
      "area": "JP-01"
    },
    {
      "name": "ちびっこ遊園地ジョイランドイオン北見",
      "address": "北海道 北見市 北進町 1-1-1　イオン北見店3F",
      "machines": 1,
      "lat": 43.808267,
      "lng": 143.87553,
      "area": "JP-01"
    },
    {
      "name": "キッズパーク イオン岩見沢",
      "address": "北海道 岩見沢市 大和四条 8-1　イオン岩見沢店2F",
      "machines": 1,
      "lat": 43.184092,
      "lng": 141.7431,
      "area": "JP-01"
    },
    {
      "name": "PALO網走",
      "address": "北海道 網走市 駒場北 5-83　駒場ショッピングタウン内",
      "machines": 1,
      "lat": 44.000901,
      "lng": 144.283923,
      "area": "JP-01"
    },
    {
      "name": "ゲオ留萌",
      "address": "北海道 留萌市 花園町 4-8-5",
      "machines": 1,
      "lat": 43.938182,
      "lng": 141.654861,
      "area": "JP-01"
    },
    {
      "name": "ファンタジープラザ苫小牧",
      "address": "北海道 苫小牧市 木場町 1-6-1　MEGAドン・キホーテ苫小牧店3F",
      "machines": 1,
      "lat": 42.641042,
      "lng": 141.595285,
      "area": "JP-01"
    },
    {
      "name": "こどものくに稚内西條",
      "address": "北海道 稚内市 大黒 4-7-1　稚内西條店内",
      "machines": 1,
      "lat": 45.397447,
      "lng": 141.692923,
      "area": "JP-01"
    },
    {
      "name": "アミューズメントスペース遊ランド稚内",
      "address": "北海道 稚内市 港 5-8-15",
      "machines": 1,
      "lat": 45.400738,
      "lng": 141.68089,
      "area": "JP-01"
    },
    {
      "name": "キッズパーク イオン紋別",
      "address": "北海道 紋別市 花園町 3-4-39　イオン紋別店2F",
      "machines": 1,
      "lat": 44.349532,
      "lng": 143.347874,
      "area": "JP-01"
    },
    {
      "name": "アミューズメントスペース遊ランド士別",
      "address": "北海道 士別市 大通東 8",
      "machines": 1,
      "lat": 44.173917,
      "lng": 142.394326,
      "area": "JP-01"
    },
    {
      "name": "モーリーファンタジー名寄",
      "address": "北海道 名寄市 徳田 80-1　イオン名寄SC2F",
      "machines": 1,
      "lat": 44.338781,
      "lng": 142.451984,
      "area": "JP-01"
    },
    {
      "name": "アミューズメントランドイオン根室",
      "address": "北海道 根室市 常盤町 3-9　イオン根室店2F",
      "machines": 1,
      "lat": 43.332226,
      "lng": 145.582949,
      "area": "JP-01"
    },
    {
      "name": "タイトーステーション千歳",
      "address": "北海道 千歳市 北栄 2-12-5",
      "machines": 1,
      "lat": 42.833339,
      "lng": 141.645548,
      "area": "JP-01"
    },
    {
      "name": "遊ランド富良野",
      "address": "北海道 富良野市 弥生町 5-50",
      "machines": 1,
      "lat": 43.344251,
      "lng": 142.378529,
      "area": "JP-01"
    },
    {
      "name": "アミューズメントスペースGAME PLAZA第一滝本館",
      "address": "北海道 登別市 登別温泉町 55　第一滝本館内",
      "machines": 1,
      "lat": 42.495074,
      "lng": 141.144963,
      "area": "JP-01"
    },
    {
      "name": "緑の風リゾート きたゆざわ",
      "address": "北海道 伊達市 大滝区北湯沢温泉町 300-2　緑の風リゾートきたゆざわゲームコーナー",
      "machines": 1,
      "lat": 42.62428,
      "lng": 141.02573,
      "area": "JP-01"
    },
    {
      "name": "ちびっこ遊園地ジョイランドイオン伊達",
      "address": "北海道 伊達市 末永町 8-1　イオン伊達店2F",
      "machines": 1,
      "lat": 42.473528,
      "lng": 140.862701,
      "area": "JP-01"
    },
    {
      "name": "モーリーファンタジー石狩緑苑台",
      "address": "北海道 石狩市 緑苑台中央 1-2　イオン石狩緑苑台SC　イオンスーパーセンター石狩緑苑台店1F",
      "machines": 1,
      "lat": 43.158187,
      "lng": 141.335453,
      "area": "JP-01"
    },
    {
      "name": "GiGO スーパーセンタートライアル上磯",
      "address": "北海道 北斗市 七重浜 7-14-1　スーパーセンタートライアル上磯店1F",
      "machines": 1,
      "lat": 41.820381,
      "lng": 140.695913,
      "area": "JP-01"
    },
    {
      "name": "ちびっこ遊園地ジョイランドイオン余市",
      "address": "北海道 余市郡余市町 黒川町 12-62-1　イオン余市店2F",
      "machines": 1,
      "lat": 43.185627,
      "lng": 140.798531,
      "area": "JP-01"
    },
    {
      "name": "キャッツアイ静内",
      "address": "北海道 日高郡新ひだか町 静内木場町 2-1-41",
      "machines": 1,
      "lat": 42.34142,
      "lng": 142.35565,
      "area": "JP-01"
    },
    {
      "name": "アミューズメントスペースジョイランド洞爺サンパレス",
      "address": "北海道 有珠郡壮瞥町 洞爺湖温泉 7-1　洞爺サンパレス内",
      "machines": 1,
      "lat": 42.565474,
      "lng": 140.833307,
      "area": "JP-01"
    },
    {
      "name": "キャッツアイ静内",
      "address": "北海道 日高郡新ひだか町 静内木場町 2-1-41",
      "machines": 1,
      "lat": 42.34142,
      "lng": 142.35565,
      "area": "JP-01"
    },
    {
      "name": "ルスツリゾートゲームワールド",
      "address": "北海道 虻田郡留寿都村 字泉川 13",
      "machines": 1,
      "lat": 42.73677,
      "lng": 140.910574,
      "area": "JP-01"
    },
    {
      "name": "ユーズランド下田",
      "address": "青森県 上北郡おいらせ町 中野平 40-1　イオンモール下田1F",
      "machines": 6,
      "lat": 40.601457,
      "lng": 141.417784,
      "area": "JP-02"
    },
    {
      "name": "ラウンドワン青森",
      "address": "青森県 青森市 浜田 3-1-1",
      "machines": 4,
      "lat": 40.799322,
      "lng": 140.748564,
      "area": "JP-02"
    },
    {
      "name": "タイトーステーション青森ガーラタウン",
      "address": "青森県 青森市 三好 2-3-19",
      "machines": 2,
      "lat": 40.833929,
      "lng": 140.70151,
      "area": "JP-02"
    },
    {
      "name": "ラ・セラキッズ",
      "address": "青森県 青森市 八重田 4-2-1　ラ・セラ東バイパスSC内",
      "machines": 2,
      "lat": 40.827453,
      "lng": 140.800296,
      "area": "JP-02"
    },
    {
      "name": "ソユーゲームフィールド青森",
      "address": "青森県 青森市 浜田 1-14-1　CiiNA CiiNA青森2F",
      "machines": 2,
      "lat": 40.800813,
      "lng": 140.749054,
      "area": "JP-02"
    },
    {
      "name": "タイトーステーション青森アムゼ",
      "address": "青森県 青森市 緑 3-9-2　サンロード青森アムゼ内",
      "machines": 2,
      "lat": 40.807812,
      "lng": 140.753293,
      "area": "JP-02"
    },
    {
      "name": "ソユースペースファンタジーインフィニ",
      "address": "青森県 弘前市 城東北 3-10-1　さくら野百貨店弘前店4F",
      "machines": 2,
      "lat": 40.607213,
      "lng": 140.49568,
      "area": "JP-02"
    },
    {
      "name": "ファミリーランド弘前",
      "address": "青森県 弘前市 駅前 3-2-1　CiiNA CiiNA弘前4F",
      "machines": 2,
      "lat": 40.599359,
      "lng": 140.481052,
      "area": "JP-02"
    },
    {
      "name": "HapipiLandヒロロ弘前",
      "address": "青森県 弘前市 駅前町 9-20　ヒロロ4F",
      "machines": 2,
      "lat": 40.597524,
      "lng": 140.481759,
      "area": "JP-02"
    },
    {
      "name": "タイトーFステーション八戸",
      "address": "青森県 八戸市 三日町 27",
      "machines": 2,
      "lat": 40.509307,
      "lng": 141.490581,
      "area": "JP-02"
    },
    {
      "name": "GiGO 八戸",
      "address": "青森県 八戸市 城下 4-25-14",
      "machines": 2,
      "lat": 40.519908,
      "lng": 141.4983,
      "area": "JP-02"
    },
    {
      "name": "ファンタジードーム八戸",
      "address": "青森県 八戸市 江陽 2-14-1　ラピア別棟",
      "machines": 2,
      "lat": 40.521872,
      "lng": 141.502709,
      "area": "JP-02"
    },
    {
      "name": "ゆりの木ボウル",
      "address": "青森県 八戸市 鷹匠小路 10-3　ゆりの木ボウル内ゲームコーナー",
      "machines": 2,
      "lat": 40.506633,
      "lng": 141.493676,
      "area": "JP-02"
    },
    {
      "name": "namcoエルムの街ショッピングセンター",
      "address": "青森県 五所川原市 唐笠柳字藤巻 517-1　エルムの街SC　C棟2F",
      "machines": 2,
      "lat": 40.799553,
      "lng": 140.454126,
      "area": "JP-02"
    },
    {
      "name": "モーリーファンタジー十和田",
      "address": "青森県 十和田市 大字相坂字六日町山 166-1　イオン十和田SC　イオンスーパーセンター十和田店1F",
      "machines": 2,
      "lat": 40.602992,
      "lng": 141.256629,
      "area": "JP-02"
    },
    {
      "name": "イーグルボウル",
      "address": "青森県 十和田市 東四番町 3-39",
      "machines": 2,
      "lat": 40.608742,
      "lng": 141.221155,
      "area": "JP-02"
    },
    {
      "name": "モーリーファンタジーつがる柏",
      "address": "青森県 つがる市 柏稲盛 幾世41　イオンモールつがる柏1F",
      "machines": 2,
      "lat": 40.803095,
      "lng": 140.416365,
      "area": "JP-02"
    },
    {
      "name": "モーリーファンタジー下田",
      "address": "青森県 上北郡おいらせ町 中野平 40-1　イオンモール下田　イオン下田店2F",
      "machines": 2,
      "lat": 40.601962,
      "lng": 141.419372,
      "area": "JP-02"
    },
    {
      "name": "ゲオ青森浜館",
      "address": "青森県 青森市 浜館 3-3-18",
      "machines": 1,
      "lat": 40.807522,
      "lng": 140.787076,
      "area": "JP-02"
    },
    {
      "name": "GiGO 弘前",
      "address": "青森県 弘前市 末広 1-3-3",
      "machines": 1,
      "lat": 40.604073,
      "lng": 140.499919,
      "area": "JP-02"
    },
    {
      "name": "ゲームフィールド弘前樋の口",
      "address": "青森県 弘前市 樋の口 2-9-6　イオンタウン弘前樋の口1F",
      "machines": 1,
      "lat": 40.602727,
      "lng": 140.444168,
      "area": "JP-02"
    },
    {
      "name": "ソユーゲームフィールド八戸",
      "address": "青森県 八戸市 沼館 4-7-112　ピアドゥB棟2F",
      "machines": 1,
      "lat": 40.527767,
      "lng": 141.497134,
      "area": "JP-02"
    },
    {
      "name": "モーリーファンタジー八戸田向",
      "address": "青森県 八戸市 田向字毘沙門平 27-1　イオン八戸田向SC　イオン八戸田向店1F",
      "machines": 1,
      "lat": 40.492005,
      "lng": 141.509598,
      "area": "JP-02"
    },
    {
      "name": "PALO黒石",
      "address": "青森県 黒石市 富士見 103-3　アクロスプラザ黒石内",
      "machines": 1,
      "lat": 40.666617,
      "lng": 140.601765,
      "area": "JP-02"
    },
    {
      "name": "PALO五所川原",
      "address": "青森県 五所川原市 唐笠柳字藤巻 641-1　アクロスプラザ五所川原内",
      "machines": 1,
      "lat": 40.800759,
      "lng": 140.46146,
      "area": "JP-02"
    },
    {
      "name": "モーリーファンタジー三沢",
      "address": "青森県 三沢市 松園町 3-10-1　ビードルプラザ三沢SC1F",
      "machines": 1,
      "lat": 40.674993,
      "lng": 141.36303,
      "area": "JP-02"
    },
    {
      "name": "ゲオ三沢",
      "address": "青森県 三沢市 栄町 2-31",
      "machines": 1,
      "lat": 40.67392,
      "lng": 141.365196,
      "area": "JP-02"
    },
    {
      "name": "PALOむつ",
      "address": "青森県 むつ市 中央 2-7-8　1F",
      "machines": 1,
      "lat": 41.28688,
      "lng": 141.18373,
      "area": "JP-02"
    },
    {
      "name": "ハロータイトーむつ",
      "address": "青森県 むつ市 小川町 2-4-8　マエダ本店4F",
      "machines": 1,
      "lat": 41.29291,
      "lng": 141.207841,
      "area": "JP-02"
    },
    {
      "name": "ゲームランドつがる柏",
      "address": "青森県 つがる市 柏稲盛幾世 41　イオンモールつがる柏本館2F",
      "machines": 1,
      "lat": 40.802632,
      "lng": 140.416655,
      "area": "JP-02"
    },
    {
      "name": "モーリーファンタジー平賀",
      "address": "青森県 平川市 小和森上松岡 193-1　イオンタウン平賀　マックスバリュ平賀店1F",
      "machines": 1,
      "lat": 40.591256,
      "lng": 140.566251,
      "area": "JP-02"
    },
    {
      "name": "モーリーファンタジー藤崎",
      "address": "青森県 南津軽郡藤崎町 西豊田 1-7-1　イオン藤崎店2F",
      "machines": 1,
      "lat": 40.657169,
      "lng": 140.501486,
      "area": "JP-02"
    },
    {
      "name": "モーリーファンタジー鶴田",
      "address": "青森県 北津軽郡鶴田町 鶴田字中泉 245-1　スーパーストア鶴田フッドリバーモール1F",
      "machines": 1,
      "lat": 40.764403,
      "lng": 140.441335,
      "area": "JP-02"
    },
    {
      "name": "ハロータイトーイオン七戸十和田駅前",
      "address": "青森県 上北郡七戸町 荒熊内 67-990　イオン七戸SC　イオン七戸十和田駅前店内",
      "machines": 1,
      "lat": 40.718897,
      "lng": 141.155339,
      "area": "JP-02"
    },
    {
      "name": "ショッピングモールリーブ",
      "address": "青森県 上北郡六ヶ所村 大字尾駮 字野附1-68",
      "machines": 1,
      "lat": 40.965546,
      "lng": 141.363629,
      "area": "JP-02"
    },
    {
      "name": "スイーツ・ハート野辺地",
      "address": "青森県 上北郡野辺地町 二本木 24-1　マックスバリュ野辺地店1F",
      "machines": 1,
      "lat": 40.866134,
      "lng": 141.111859,
      "area": "JP-02"
    },
    {
      "name": "ラウンドワンスタジアム盛岡",
      "address": "岩手県 盛岡市 盛岡駅西通 2-10-35",
      "machines": 4,
      "lat": 39.700378,
      "lng": 141.133194,
      "area": "JP-03"
    },
    {
      "name": "アミューズメントゾーン北上",
      "address": "岩手県 北上市 本通り 2-2-1　さくら野百貨店北上店4F",
      "machines": 3,
      "lat": 39.288443,
      "lng": 141.115825,
      "area": "JP-03"
    },
    {
      "name": "タイトーステーション盛岡マッハランド",
      "address": "岩手県 盛岡市 上堂 1-2-38",
      "machines": 2,
      "lat": 39.723165,
      "lng": 141.126452,
      "area": "JP-03"
    },
    {
      "name": "ゲームランド盛岡",
      "address": "岩手県 盛岡市 前潟 4-7-1　イオンモール盛岡2F",
      "machines": 2,
      "lat": 39.711606,
      "lng": 141.099932,
      "area": "JP-03"
    },
    {
      "name": "ソユーゲームフィールド盛岡南",
      "address": "岩手県 盛岡市 本宮 7-1-1　イオンモール盛岡南2F",
      "machines": 2,
      "lat": 39.683567,
      "lng": 141.128669,
      "area": "JP-03"
    },
    {
      "name": "モーリーファンタジーイオン盛岡南",
      "address": "岩手県 盛岡市 本宮 7-1-1　イオンモール盛岡南　イオン盛岡南店3F",
      "machines": 2,
      "lat": 39.683561,
      "lng": 141.12868,
      "area": "JP-03"
    },
    {
      "name": "モーリーファンタジーサンサ盛岡南",
      "address": "岩手県 盛岡市 津志田西 2-17-50　盛岡南SCサンサ内",
      "machines": 2,
      "lat": 39.661971,
      "lng": 141.148142,
      "area": "JP-03"
    },
    {
      "name": "チャットタウン北上",
      "address": "岩手県 北上市 北鬼柳 19-71　江釣子SCパル2F",
      "machines": 2,
      "lat": 39.293188,
      "lng": 141.093097,
      "area": "JP-03"
    },
    {
      "name": "GiGO 一関",
      "address": "岩手県 一関市 山目字中野 92-1",
      "machines": 2,
      "lat": 38.933734,
      "lng": 141.118342,
      "area": "JP-03"
    },
    {
      "name": "モーリーファンタジースーパーセンター一関",
      "address": "岩手県 一関市 狐禅寺 字石ノ瀬11-1　イオンスーパーセンター一関店1F",
      "machines": 2,
      "lat": 38.939652,
      "lng": 141.153482,
      "area": "JP-03"
    },
    {
      "name": "ソユーゲームフィールド釜石",
      "address": "岩手県 釜石市 港町 2-51-41　イオンタウン釜石3F",
      "machines": 2,
      "lat": 39.271199,
      "lng": 141.881805,
      "area": "JP-03"
    },
    {
      "name": "ニコアプレイランド",
      "address": "岩手県 二戸市 米沢 字荒谷25　二戸SCニコア内",
      "machines": 2,
      "lat": 40.283166,
      "lng": 141.294262,
      "area": "JP-03"
    },
    {
      "name": "モーリーファンタジー盛岡",
      "address": "岩手県 盛岡市 前潟 4-7-1　イオンモール盛岡　イオン盛岡店2F",
      "machines": 1,
      "lat": 39.711595,
      "lng": 141.099954,
      "area": "JP-03"
    },
    {
      "name": "ゲームシアターサンシャイン",
      "address": "岩手県 盛岡市 大通 2-7-21　ソレントビル1・2F",
      "machines": 1,
      "lat": 39.703192,
      "lng": 141.145434,
      "area": "JP-03"
    },
    {
      "name": "タイトーFステーション盛岡南",
      "address": "岩手県 盛岡市 津志田町 2-1-77",
      "machines": 1,
      "lat": 39.666612,
      "lng": 141.157142,
      "area": "JP-03"
    },
    {
      "name": "モーリーファンタジー盛岡渋民",
      "address": "岩手県 盛岡市 玉山区渋民 字鶴飼20-1　イオン盛岡渋民SC　イオンスーパーセンター盛岡渋民店1F",
      "machines": 1,
      "lat": 39.849976,
      "lng": 141.172806,
      "area": "JP-03"
    },
    {
      "name": "ファミリーらんどDORA宮古",
      "address": "岩手県 宮古市 小山田 2-2-1　マリンコープDORA2F",
      "machines": 1,
      "lat": 39.632168,
      "lng": 141.941891,
      "area": "JP-03"
    },
    {
      "name": "さんさんらんど大船渡",
      "address": "岩手県 大船渡市 盛町字町 10-11　(協)南三陸SCサン・リア1F",
      "machines": 1,
      "lat": 39.087787,
      "lng": 141.709238,
      "area": "JP-03"
    },
    {
      "name": "ゲオ大船渡",
      "address": "岩手県 大船渡市 立根町 字桑原28-2",
      "machines": 1,
      "lat": 39.108586,
      "lng": 141.712652,
      "area": "JP-03"
    },
    {
      "name": "ファミリーランド花巻",
      "address": "岩手県 花巻市 下小舟渡 118-1　CiiNA CiiNA花巻2F",
      "machines": 1,
      "lat": 39.392972,
      "lng": 141.117623,
      "area": "JP-03"
    },
    {
      "name": "ソユーファミリーゲームフィールド花巻",
      "address": "岩手県 花巻市 高木 第16地割68-6　銀河モール花巻1F",
      "machines": 1,
      "lat": 39.386541,
      "lng": 141.136803,
      "area": "JP-03"
    },
    {
      "name": "TSUTAYA久慈",
      "address": "岩手県 久慈市 川崎町 11-22",
      "machines": 1,
      "lat": 40.192024,
      "lng": 141.770891,
      "area": "JP-03"
    },
    {
      "name": "PALO久慈",
      "address": "岩手県 久慈市 長内町 第30地割32-2　久慈SC1F",
      "machines": 1,
      "lat": 40.189862,
      "lng": 141.785598,
      "area": "JP-03"
    },
    {
      "name": "モーリーファンタジー遠野",
      "address": "岩手県 遠野市 新穀町 1-11　遠野SCとぴあ2F",
      "machines": 1,
      "lat": 39.330995,
      "lng": 141.531961,
      "area": "JP-03"
    },
    {
      "name": "モーリーファンタジー一関",
      "address": "岩手県 一関市 山目 字泥田89-1　イオン一関店2F",
      "machines": 1,
      "lat": 38.936853,
      "lng": 141.112782,
      "area": "JP-03"
    },
    {
      "name": "モーリーファンタジー前沢",
      "address": "岩手県 奥州市 前沢区 字向田2-85　イオン前沢SC　イオン前沢店2F",
      "machines": 1,
      "lat": 39.052549,
      "lng": 141.129679,
      "area": "JP-03"
    },
    {
      "name": "キッズパーク",
      "address": "岩手県 奥州市 水沢区佐倉河字東沖ノ目 123　岩手生協コープAterui2F",
      "machines": 1,
      "lat": 39.148316,
      "lng": 141.156719,
      "area": "JP-03"
    },
    {
      "name": "GiGO 水沢",
      "address": "岩手県 奥州市 水沢区佐倉河字鐙田 4-1",
      "machines": 1,
      "lat": 39.152657,
      "lng": 141.149372,
      "area": "JP-03"
    },
    {
      "name": "アミューズメントパークアルコ",
      "address": "岩手県 紫波郡矢巾町 南矢幅 7-425-3　ショッピングモールアルコ内",
      "machines": 1,
      "lat": 39.611071,
      "lng": 141.152681,
      "area": "JP-03"
    },
    {
      "name": "キッズランド紫波",
      "address": "岩手県 紫波郡紫波町 桜町 1-12-1　ショッピングセンターNACS",
      "machines": 1,
      "lat": 39.549077,
      "lng": 141.165242,
      "area": "JP-03"
    },
    {
      "name": "ゲームランドプレーゴ金ヶ崎",
      "address": "岩手県 胆沢郡金ケ崎町 三ケ尻荒巻 165　イオンスーパーセンター金ヶ崎店内",
      "machines": 1,
      "lat": 39.219547,
      "lng": 141.10125,
      "area": "JP-03"
    },
    {
      "name": "山田レジャーセンター",
      "address": "岩手県 下閉伊郡山田町 川向町 5-11　白土ビル1F",
      "machines": 1,
      "lat": 39.464901,
      "lng": 141.950783,
      "area": "JP-03"
    },
    {
      "name": "アピナ新利府北館",
      "address": "宮城県 宮城郡利府町 利府 字新屋田前22　イオンモール新利府北館2F",
      "machines": 8,
      "lat": 38.326849,
      "lng": 140.971978,
      "area": "JP-04"
    },
    {
      "name": "ラウンドワンスタジアム仙台泉",
      "address": "宮城県 仙台市泉区 大沢 2-12-4　仙台泉インターシティ1・2F",
      "machines": 5,
      "lat": 38.352027,
      "lng": 140.879508,
      "area": "JP-04"
    },
    {
      "name": "バンダイナムコ Cross Store 仙台",
      "address": "宮城県 名取市 杜せきのした 5-3-1　イオンモール名取3F",
      "machines": 4,
      "lat": 38.163379,
      "lng": 140.896344,
      "area": "JP-04"
    },
    {
      "name": "HapipiLand古川",
      "address": "宮城県 大崎市 古川沢田 筒場浦15　ザ・ダイソーイオンタウン店2F",
      "machines": 4,
      "lat": 38.599023,
      "lng": 140.974156,
      "area": "JP-04"
    },
    {
      "name": "namcoイオンモール新利府南館",
      "address": "宮城県 宮城郡利府町 新中道 3-1-1　イオンモール利府南館3F",
      "machines": 4,
      "lat": 38.322705,
      "lng": 140.971763,
      "area": "JP-04"
    },
    {
      "name": "ラウンドワン仙台苦竹",
      "address": "宮城県 仙台市宮城野区 苦竹 1-7-10",
      "machines": 3,
      "lat": 38.268083,
      "lng": 140.917245,
      "area": "JP-04"
    },
    {
      "name": "GiGO イオン仙台中山",
      "address": "宮城県 仙台市泉区 南中山 1-35-57　イオン仙台中山SC　イオン仙台中山店別館3F",
      "machines": 3,
      "lat": 38.297896,
      "lng": 140.827083,
      "area": "JP-04"
    },
    {
      "name": "GAME BANK 泉",
      "address": "宮城県 仙台市泉区 大沢 2-5-4",
      "machines": 3,
      "lat": 38.352736,
      "lng": 140.877348,
      "area": "JP-04"
    },
    {
      "name": "GiGO 仙台一番町",
      "address": "宮城県 仙台市青葉区 一番町 4-5-13　サンシャインビル1F",
      "machines": 3,
      "lat": 38.264135,
      "lng": 140.871162,
      "area": "JP-04"
    },
    {
      "name": "タイトーステーション仙台ベガロポリス",
      "address": "宮城県 仙台市太白区 西多賀 5-24-1　ベガロポリス内",
      "machines": 2,
      "lat": 38.219688,
      "lng": 140.847988,
      "area": "JP-04"
    },
    {
      "name": "モーリーファンタジー鈎取",
      "address": "宮城県 仙台市太白区 鈎取本町 1-21-1　イオンスーパーセンター鈎取店1F",
      "machines": 2,
      "lat": 38.219664,
      "lng": 140.837524,
      "area": "JP-04"
    },
    {
      "name": "ゲームフィールド仙台長町",
      "address": "宮城県 仙台市太白区 長町 7-20-3　ザ・モール仙台長町3F",
      "machines": 2,
      "lat": 38.22599,
      "lng": 140.876736,
      "area": "JP-04"
    },
    {
      "name": "モーリーファンタジーヨドバシ仙台",
      "address": "宮城県 仙台市宮城野区 榴岡 1ｰ3−1　ヨドバシ仙台第1ビル5F",
      "machines": 2,
      "lat": 38.258969,
      "lng": 140.883495,
      "area": "JP-04"
    },
    {
      "name": "モーリーファンタジー仙台中山",
      "address": "宮城県 仙台市泉区 南中山 1-35-40　イオン仙台中山SC　イオン仙台中山店3F",
      "machines": 2,
      "lat": 38.297946,
      "lng": 140.827022,
      "area": "JP-04"
    },
    {
      "name": "GiGO 泉中央ショッピングプラザセルバ",
      "address": "宮城県 仙台市泉区 泉中央 1-4-1　泉ショッピングプラザ・セルバ5F",
      "machines": 2,
      "lat": 38.323764,
      "lng": 140.882078,
      "area": "JP-04"
    },
    {
      "name": "ゲームコーナー東部",
      "address": "宮城県 仙台市若林区 六丁の目中町 26-60　斎喜東部ビル",
      "machines": 2,
      "lat": 38.250969,
      "lng": 140.943894,
      "area": "JP-04"
    },
    {
      "name": "モーリーファンタジー仙台卸町",
      "address": "宮城県 仙台市若林区 卸町 1-1　イオンスタイル仙台卸町3F",
      "machines": 2,
      "lat": 38.25229,
      "lng": 140.918913,
      "area": "JP-04"
    },
    {
      "name": "タイトーステーション仙台名掛丁",
      "address": "宮城県 仙台市青葉区 中央 1-7-13",
      "machines": 2,
      "lat": 38.262066,
      "lng": 140.879083,
      "area": "JP-04"
    },
    {
      "name": "タイトーステーション仙台クリスロード",
      "address": "宮城県 仙台市青葉区 中央 2-3-25",
      "machines": 2,
      "lat": 38.261001,
      "lng": 140.875607,
      "area": "JP-04"
    },
    {
      "name": "GiGO 仙台",
      "address": "宮城県 仙台市青葉区 中央 2-5-5",
      "machines": 2,
      "lat": 38.261621,
      "lng": 140.876736,
      "area": "JP-04"
    },
    {
      "name": "ゲームフィールド仙台上杉",
      "address": "宮城県 仙台市青葉区 堤通雨宮町 1-1　イオンモール仙台上杉3F",
      "machines": 2,
      "lat": 38.275706,
      "lng": 140.870663,
      "area": "JP-04"
    },
    {
      "name": "GiGO 石巻",
      "address": "宮城県 石巻市 大街道東 4-1-45",
      "machines": 2,
      "lat": 38.429408,
      "lng": 141.285368,
      "area": "JP-04"
    },
    {
      "name": "プラサカプコン石巻",
      "address": "宮城県 石巻市 茜平 4-104　イオンモール石巻2F",
      "machines": 2,
      "lat": 38.447539,
      "lng": 141.264872,
      "area": "JP-04"
    },
    {
      "name": "モーリーファンタジー石巻",
      "address": "宮城県 石巻市 茜平 4-104　イオンモール石巻　イオン石巻店2F",
      "machines": 2,
      "lat": 38.447673,
      "lng": 141.265904,
      "area": "JP-04"
    },
    {
      "name": "モーリーファンタジー気仙沼",
      "address": "宮城県 気仙沼市 赤岩舘下 6-1外　イオン気仙沼店2F",
      "machines": 2,
      "lat": 38.889034,
      "lng": 141.573068,
      "area": "JP-04"
    },
    {
      "name": "モーリーファンタジー新名取",
      "address": "宮城県 名取市 杜せきのした 5-3-1　イオンモール名取　イオン新名取店3F",
      "machines": 2,
      "lat": 38.163827,
      "lng": 140.895716,
      "area": "JP-04"
    },
    {
      "name": "アミューズパーク名取りんくう",
      "address": "宮城県 名取市 美田園 6-24",
      "machines": 2,
      "lat": 38.160099,
      "lng": 140.915182,
      "area": "JP-04"
    },
    {
      "name": "モーリーファンタジー多賀城",
      "address": "宮城県 多賀城市 町前 4-1-1　イオン多賀城店3F",
      "machines": 2,
      "lat": 38.282452,
      "lng": 141.004484,
      "area": "JP-04"
    },
    {
      "name": "サープラ岩沼あそびタウン",
      "address": "宮城県 岩沼市 末広 1-2-11",
      "machines": 2,
      "lat": 38.104916,
      "lng": 140.873229,
      "area": "JP-04"
    },
    {
      "name": "ゲームランド佐沼",
      "address": "宮城県 登米市 南方町新島前 46-1　イオンタウン佐沼1F",
      "machines": 2,
      "lat": 38.682592,
      "lng": 141.183925,
      "area": "JP-04"
    },
    {
      "name": "モーリーファンタジー古川",
      "address": "宮城県 大崎市 古川旭 2-2-1　イオン古川店2F",
      "machines": 2,
      "lat": 38.567284,
      "lng": 140.972786,
      "area": "JP-04"
    },
    {
      "name": "namcoイオンモール富谷",
      "address": "宮城県 富谷市 大清水 1-33-1　イオンモール富谷2F",
      "machines": 2,
      "lat": 38.364032,
      "lng": 140.875908,
      "area": "JP-04"
    },
    {
      "name": "アピナ富谷",
      "address": "宮城県 富谷市 大清水 1-33-1　イオンモール富谷別棟109シネマズ富谷1F",
      "machines": 2,
      "lat": 38.364878,
      "lng": 140.875232,
      "area": "JP-04"
    },
    {
      "name": "GiGO 仙台利府",
      "address": "宮城県 宮城郡利府町 加瀬字新前谷地 55-1　利府ペアガーデン内",
      "machines": 2,
      "lat": 38.328029,
      "lng": 140.975611,
      "area": "JP-04"
    },
    {
      "name": "テックライフセレクト仙台あすと長町",
      "address": "宮城県 仙台市太白区 あすと長町 3-1-29",
      "machines": 1,
      "lat": 38.221109,
      "lng": 140.885227,
      "area": "JP-04"
    },
    {
      "name": "ホテル瑞鳳",
      "address": "宮城県 仙台市太白区 秋保町湯元 字除26-1",
      "machines": 1,
      "lat": 38.222072,
      "lng": 140.734466,
      "area": "JP-04"
    },
    {
      "name": "アミューズパーク仙台港",
      "address": "宮城県 仙台市宮城野区 中野字田中 106",
      "machines": 1,
      "lat": 38.273804,
      "lng": 140.982273,
      "area": "JP-04"
    },
    {
      "name": "GiGO 仙台コロナワールド",
      "address": "宮城県 仙台市宮城野区 福室字田中前一番 53-1　仙台コロナワールド内",
      "machines": 1,
      "lat": 38.260255,
      "lng": 140.96917,
      "area": "JP-04"
    },
    {
      "name": "crane2（クレクレ）鶴ケ谷",
      "address": "宮城県 仙台市宮城野区 鶴ケ谷 2-8-1　鶴ヶ谷SCアバイン1Fゲームコーナー",
      "machines": 1,
      "lat": 38.288848,
      "lng": 140.913571,
      "area": "JP-04"
    },
    {
      "name": "スイーツ・ハートイオンタウン仙台泉大沢",
      "address": "宮城県 仙台市泉区 大沢 1-5-1　イオンタウン仙台泉大沢2F",
      "machines": 1,
      "lat": 38.350118,
      "lng": 140.880981,
      "area": "JP-04"
    },
    {
      "name": "PSP泉パークタウンタピオ",
      "address": "宮城県 仙台市泉区 寺岡 6-5-1　泉パークタウンタピオ2F",
      "machines": 1,
      "lat": 38.343728,
      "lng": 140.836438,
      "area": "JP-04"
    },
    {
      "name": "アミュージアムヨークタウン市名坂",
      "address": "宮城県 仙台市泉区 市名坂中道 100-9　ヨークタウン市名坂内",
      "machines": 1,
      "lat": 38.315367,
      "lng": 140.905613,
      "area": "JP-04"
    },
    {
      "name": "モーリーファンタジー石巻東",
      "address": "宮城県 石巻市 流留 字七勺1-1　イオン石巻東SC　イオンスーパーセンター石巻東店1F",
      "machines": 1,
      "lat": 38.428299,
      "lng": 141.37583,
      "area": "JP-04"
    },
    {
      "name": "スーパーセンタートライアル塩釜店内ゲームコーナー",
      "address": "宮城県 塩竈市 杉の入 3-3-1　スーパーセンタートライアル塩釜店内",
      "machines": 1,
      "lat": 38.332653,
      "lng": 141.037458,
      "area": "JP-04"
    },
    {
      "name": "モーリーファンタジー塩釜",
      "address": "宮城県 塩竈市 海岸通 15-100　イオンタウン塩釜　ザ・ビッグ塩釜店2F",
      "machines": 1,
      "lat": 38.318645,
      "lng": 141.024685,
      "area": "JP-04"
    },
    {
      "name": "GiGO ホームセンタームサシ名取",
      "address": "宮城県 名取市 愛島塩手 字前野田48-10　ホームセンタームサシ名取店2F",
      "machines": 1,
      "lat": 38.161035,
      "lng": 140.8574,
      "area": "JP-04"
    },
    {
      "name": "キッズパークイオンタウン名取",
      "address": "宮城県 名取市 飯野坂 3-5-10　イオンタウン名取内",
      "machines": 1,
      "lat": 38.157474,
      "lng": 140.887086,
      "area": "JP-04"
    },
    {
      "name": "GiGO 名取",
      "address": "宮城県 名取市 飯野坂字土城堀 57-1",
      "machines": 1,
      "lat": 38.156558,
      "lng": 140.888377,
      "area": "JP-04"
    },
    {
      "name": "アクアランド岩沼",
      "address": "宮城県 岩沼市 梶橋 2-30　セラピ岩沼店内",
      "machines": 1,
      "lat": 38.124108,
      "lng": 140.871698,
      "area": "JP-04"
    },
    {
      "name": "ファミリーランド加賀野",
      "address": "宮城県 登米市 中田町石森 字加賀野3-6-1　みやぎ生協加賀野店1F",
      "machines": 1,
      "lat": 38.696867,
      "lng": 141.211207,
      "area": "JP-04"
    },
    {
      "name": "GiGO 佐沼",
      "address": "宮城県 登米市 迫町佐沼 字中江2-5-8",
      "machines": 1,
      "lat": 38.690445,
      "lng": 141.189118,
      "area": "JP-04"
    },
    {
      "name": "モーリーファンタジー栗原志波姫",
      "address": "宮城県 栗原市 志波姫新熊谷 11　イオン栗原志波姫SC　イオンスーパーセンター栗原志波姫店1F",
      "machines": 1,
      "lat": 38.748914,
      "lng": 141.06817,
      "area": "JP-04"
    },
    {
      "name": "ソユーゲームフィールド矢本",
      "address": "宮城県 東松島市 小松 字上浮足43　イオンタウン矢本",
      "machines": 1,
      "lat": 38.425195,
      "lng": 141.202975,
      "area": "JP-04"
    },
    {
      "name": "ソユーゲームフィールド古川",
      "address": "宮城県 大崎市 古川沢田 字筒場浦15　イオンタウン古川内",
      "machines": 1,
      "lat": 38.599023,
      "lng": 140.974156,
      "area": "JP-04"
    },
    {
      "name": "モーリーファンタジー富谷",
      "address": "宮城県 富谷市 大清水 1-33-1　イオンモール富谷　イオン富谷店1F",
      "machines": 1,
      "lat": 38.364674,
      "lng": 140.875172,
      "area": "JP-04"
    },
    {
      "name": "ユーズランド大河原",
      "address": "宮城県 柴田郡大河原町 小島 2-1　フォルテくらし館2F",
      "machines": 1,
      "lat": 38.065614,
      "lng": 140.737389,
      "area": "JP-04"
    },
    {
      "name": "アミューズメントパーク・サムワン",
      "address": "宮城県 柴田郡村田町 沼辺牡丹山 42-1",
      "machines": 1,
      "lat": 38.0631,
      "lng": 140.744503,
      "area": "JP-04"
    },
    {
      "name": "ピーターパンと仲間たち船岡",
      "address": "宮城県 柴田郡柴田町 西船迫 2-1-15　イオン船岡店2F",
      "machines": 1,
      "lat": 38.06316,
      "lng": 140.762322,
      "area": "JP-04"
    },
    {
      "name": "COOP亘理",
      "address": "宮城県 亘理郡亘理町 逢隈高屋 字柴北100　COOP亘理店内ゲームコーナー",
      "machines": 1,
      "lat": 38.042524,
      "lng": 140.877013,
      "area": "JP-04"
    },
    {
      "name": "モーリーファンタジー利府",
      "address": "宮城県 宮城郡利府町 新中道 3-1-1　イオンモール新利府　南館3F",
      "machines": 1,
      "lat": 38.326718,
      "lng": 140.97209,
      "area": "JP-04"
    },
    {
      "name": "ヨークベニマル利府",
      "address": "宮城県 宮城郡利府町 神谷沢 字新宮ヶ﨑14-1　ヨークベニマル利府",
      "machines": 1,
      "lat": 38.314977,
      "lng": 140.959801,
      "area": "JP-04"
    },
    {
      "name": "ゲームランドプレーゴ加美",
      "address": "宮城県 加美郡加美町 赤塚 178　イオンスーパーセンター加美店内",
      "machines": 1,
      "lat": 38.562555,
      "lng": 140.865959,
      "area": "JP-04"
    },
    {
      "name": "プレーゴ加美店プライズコーナー",
      "address": "宮城県 加美郡加美町 赤塚 178　イオンスーパーセンター加美店内",
      "machines": 1,
      "lat": 38.562632,
      "lng": 140.865945,
      "area": "JP-04"
    },
    {
      "name": "モーリーファンタジー涌谷",
      "address": "宮城県 遠田郡涌谷町 涌谷 字洞ケ崎5　イオン涌谷SC　イオンスーパーセンター涌谷店1F",
      "machines": 1,
      "lat": 38.536858,
      "lng": 141.147368,
      "area": "JP-04"
    },
    {
      "name": "ラウンドワンスタジアム秋田",
      "address": "秋田県 秋田市 卸町 1-1-2",
      "machines": 3,
      "lat": 39.702044,
      "lng": 140.109292,
      "area": "JP-05"
    },
    {
      "name": "ペニーポット秋田",
      "address": "秋田県 秋田市 中通 2-8-1　フォンテAKITA4F",
      "machines": 2,
      "lat": 39.716348,
      "lng": 140.127632,
      "area": "JP-05"
    },
    {
      "name": "秋田OPAアミューズパーク",
      "address": "秋田県 秋田市 千秋久保田町 4-2　秋田OPA5F",
      "machines": 2,
      "lat": 39.717865,
      "lng": 140.128145,
      "area": "JP-05"
    },
    {
      "name": "ロックンボウル",
      "address": "秋田県 秋田市 広面字長沼 301",
      "machines": 2,
      "lat": 39.717279,
      "lng": 140.143443,
      "area": "JP-05"
    },
    {
      "name": "ソユーゲームフィールド御所野",
      "address": "秋田県 秋田市 御所野地蔵田 1-1-1　イオンモール秋田2F",
      "machines": 2,
      "lat": 39.663619,
      "lng": 140.160522,
      "area": "JP-05"
    },
    {
      "name": "モーリーファンタジー御所野",
      "address": "秋田県 秋田市 御所野地蔵田 1-1-1　イオンモール秋田　イオンスタイル御所野3F",
      "machines": 2,
      "lat": 39.66315,
      "lng": 140.16127,
      "area": "JP-05"
    },
    {
      "name": "モーリーファンタジー秋田中央",
      "address": "秋田県 秋田市 楢山川口境 5-11　イオン秋田中央店3F",
      "machines": 2,
      "lat": 39.704127,
      "lng": 140.109642,
      "area": "JP-05"
    },
    {
      "name": "G3ポロス横手南",
      "address": "秋田県 横手市 婦気大堤 字中田4-1　イオンスーパーセンター横手南店2F",
      "machines": 2,
      "lat": 39.295224,
      "lng": 140.552251,
      "area": "JP-05"
    },
    {
      "name": "モーリーファンタジー大館",
      "address": "秋田県 大館市 大田面 238　イオンスーパーセンター大館店1F",
      "machines": 2,
      "lat": 40.286148,
      "lng": 140.57675,
      "area": "JP-05"
    },
    {
      "name": "namcoイオンタウン大館西",
      "address": "秋田県 大館市 根下戸新町 18-121　イオンタウン大館西内",
      "machines": 2,
      "lat": 40.273745,
      "lng": 140.530038,
      "area": "JP-05"
    },
    {
      "name": "プラサカプコン大曲",
      "address": "秋田県 大仙市 和合字坪立 177　イオンモール大曲2F",
      "machines": 2,
      "lat": 39.438944,
      "lng": 140.508099,
      "area": "JP-05"
    },
    {
      "name": "にこにこBEAR秋田",
      "address": "秋田県 秋田市 土崎港南 2-3-41　イオン土崎港店2F",
      "machines": 1,
      "lat": 39.74764,
      "lng": 140.072279,
      "area": "JP-05"
    },
    {
      "name": "ファンタジープラザ秋田",
      "address": "秋田県 秋田市 旭北錦町 4-58　ドン・キホーテ秋田店2F",
      "machines": 1,
      "lat": 39.714853,
      "lng": 140.109042,
      "area": "JP-05"
    },
    {
      "name": "GiGO 秋田",
      "address": "秋田県 秋田市 茨島 1-1-16",
      "machines": 1,
      "lat": 39.704157,
      "lng": 140.104598,
      "area": "JP-05"
    },
    {
      "name": "ソユープレイランドソピアいとくアクロス能代",
      "address": "秋田県 能代市 寺向 70　いとく能代SCショッピングタウンアクロス能代内",
      "machines": 1,
      "lat": 40.182816,
      "lng": 140.053478,
      "area": "JP-05"
    },
    {
      "name": "モーリーファンタジー能代",
      "address": "秋田県 能代市 柳町 11-1　能代SC　イオン能代店3F",
      "machines": 1,
      "lat": 40.20909,
      "lng": 140.024652,
      "area": "JP-05"
    },
    {
      "name": "ソユーゲームフィールド能代",
      "address": "秋田県 能代市 鰄渕 字古屋布1　イオンタウン能代内",
      "machines": 1,
      "lat": 40.188827,
      "lng": 140.077504,
      "area": "JP-05"
    },
    {
      "name": "ゲームフィールド十文字",
      "address": "秋田県 横手市 十文字町仁井田 字東22-1　スーパーモールラッキー内",
      "machines": 1,
      "lat": 39.216114,
      "lng": 140.521055,
      "area": "JP-05"
    },
    {
      "name": "モーリーファンタジー横手",
      "address": "秋田県 横手市 安田 字向田147　イオン横手店2F",
      "machines": 1,
      "lat": 39.298639,
      "lng": 140.553675,
      "area": "JP-05"
    },
    {
      "name": "ソユーゲームフィールド大館",
      "address": "秋田県 大館市 御成町 3-7-58　いとく大館SC3F",
      "machines": 1,
      "lat": 40.280882,
      "lng": 140.56034,
      "area": "JP-05"
    },
    {
      "name": "トム・ソーヤのなかまたち。湯沢",
      "address": "秋田県 湯沢市 字上荻生田 162　イオン湯沢SC　イオンスーパーセンター湯沢店内",
      "machines": 1,
      "lat": 39.150485,
      "lng": 140.469426,
      "area": "JP-05"
    },
    {
      "name": "ソユープレイランドソピア鹿角",
      "address": "秋田県 鹿角市 花輪 字下夕町164-1　いとく鹿角SC内",
      "machines": 1,
      "lat": 40.199675,
      "lng": 140.793087,
      "area": "JP-05"
    },
    {
      "name": "モーリーファンタジー本荘",
      "address": "秋田県 由利本荘市 石脇 字田中138　イオン本荘SC　イオンスーパーセンター本荘店内",
      "machines": 1,
      "lat": 39.391502,
      "lng": 140.027493,
      "area": "JP-05"
    },
    {
      "name": "モーリーファンタジー中仙",
      "address": "秋田県 大仙市 北長野 字袴田188　イオン中仙SC　イオン中仙店1F",
      "machines": 1,
      "lat": 39.551465,
      "lng": 140.55139,
      "area": "JP-05"
    },
    {
      "name": "モーリーファンタジー大曲",
      "address": "秋田県 大仙市 和合字坪立 177　イオンモール大曲　イオン大曲店2F",
      "machines": 1,
      "lat": 39.438501,
      "lng": 140.508897,
      "area": "JP-05"
    },
    {
      "name": "トム・ソーヤのなかまたち。鷹巣",
      "address": "秋田県 北秋田市 栄 字中綱31-1　イオンタウンたかのす店1F",
      "machines": 1,
      "lat": 40.230965,
      "lng": 140.382902,
      "area": "JP-05"
    },
    {
      "name": "ゲームフィールド鷹巣",
      "address": "秋田県 北秋田市 栄 字前網76　いとく鷹巣SC内",
      "machines": 1,
      "lat": 40.232598,
      "lng": 140.380088,
      "area": "JP-05"
    },
    {
      "name": "トム・ソーヤのなかまたち。五城目",
      "address": "秋田県 南秋田郡五城目町 大川西野 字田屋前138　イオンスーパーセンター五城目店内",
      "machines": 1,
      "lat": 39.935949,
      "lng": 140.107119,
      "area": "JP-05"
    },
    {
      "name": "ソユーゲームフィールド酒田",
      "address": "山形県 酒田市 泉町 198　イオンタウン酒田内",
      "machines": 3,
      "lat": 38.935702,
      "lng": 139.846927,
      "area": "JP-06"
    },
    {
      "name": "あそビレッジ山形",
      "address": "山形県 山形市 成沢西 5-3-27",
      "machines": 2,
      "lat": 38.208546,
      "lng": 140.317727,
      "area": "JP-06"
    },
    {
      "name": "namcoイオンモール山形南",
      "address": "山形県 山形市 若宮 3-7-8　イオンモール山形南2F",
      "machines": 2,
      "lat": 38.227099,
      "lng": 140.304492,
      "area": "JP-06"
    },
    {
      "name": "モーリーファンタジー山形北",
      "address": "山形県 山形市 馬見ケ崎 2-12-19　イオン山形北SC　イオン山形北店2F",
      "machines": 2,
      "lat": 38.282866,
      "lng": 140.330841,
      "area": "JP-06"
    },
    {
      "name": "モーリーファンタジー米沢",
      "address": "山形県 米沢市 春日 2-13-4　イオン米沢店2F",
      "machines": 2,
      "lat": 37.923009,
      "lng": 140.108618,
      "area": "JP-06"
    },
    {
      "name": "アピナ鶴岡",
      "address": "山形県 鶴岡市 文下字広野 1-1",
      "machines": 2,
      "lat": 38.758139,
      "lng": 139.844383,
      "area": "JP-06"
    },
    {
      "name": "namcoS-MALL",
      "address": "山形県 鶴岡市 錦町 2-21　S-MALL 2F",
      "machines": 2,
      "lat": 38.739125,
      "lng": 139.832094,
      "area": "JP-06"
    },
    {
      "name": "モーリーファンタジー酒田南",
      "address": "山形県 酒田市 あきほ町 120-1　イオン酒田南店1F",
      "machines": 2,
      "lat": 38.892744,
      "lng": 139.853173,
      "area": "JP-06"
    },
    {
      "name": "GiGO 天童",
      "address": "山形県 天童市 南町 1-5-26",
      "machines": 2,
      "lat": 38.343025,
      "lng": 140.373995,
      "area": "JP-06"
    },
    {
      "name": "ソユーゲームフィールド天童",
      "address": "山形県 天童市 芳賀タウン北 4-1-1　イオンモール天童　モール棟2F",
      "machines": 2,
      "lat": 38.344909,
      "lng": 140.364039,
      "area": "JP-06"
    },
    {
      "name": "モーリーファンタジー東根",
      "address": "山形県 東根市 さくらんぼ駅前 3-7-15　イオン新東根SC　イオン東根店2F",
      "machines": 2,
      "lat": 38.427088,
      "lng": 140.387488,
      "area": "JP-06"
    },
    {
      "name": "GiGO 北山形",
      "address": "山形県 山形市 北町 1-3-20",
      "machines": 1,
      "lat": 38.268249,
      "lng": 140.331351,
      "area": "JP-06"
    },
    {
      "name": "ゲームゾーントレジャー北町",
      "address": "山形県 山形市 北町 2-2-45　山形ファミリーボウル内",
      "machines": 1,
      "lat": 38.268743,
      "lng": 140.32938,
      "area": "JP-06"
    },
    {
      "name": "スタジオプリモ山形",
      "address": "山形県 山形市 城南町 1-1-1　霞城セントラル2F",
      "machines": 1,
      "lat": 38.250161,
      "lng": 140.326778,
      "area": "JP-06"
    },
    {
      "name": "パルケデアミーゴ！",
      "address": "山形県 山形市 嶋北 1-3-1",
      "machines": 1,
      "lat": 38.283666,
      "lng": 140.3216,
      "area": "JP-06"
    },
    {
      "name": "わくわくランド北町",
      "address": "山形県 山形市 桧町 4-4-21",
      "machines": 1,
      "lat": 38.275098,
      "lng": 140.324797,
      "area": "JP-06"
    },
    {
      "name": "モーリーファンタジー山形南",
      "address": "山形県 山形市 若宮 3-7-8　イオンモール山形南　イオン山形南店2F",
      "machines": 1,
      "lat": 38.227099,
      "lng": 140.304492,
      "area": "JP-06"
    },
    {
      "name": "GiGO 米沢",
      "address": "山形県 米沢市 花沢字タナコ原 177",
      "machines": 1,
      "lat": 37.910931,
      "lng": 140.133671,
      "area": "JP-06"
    },
    {
      "name": "GiGO ヨークベニマル米沢",
      "address": "山形県 米沢市 駅前 3-1-18　ヨークベニマル米沢店内",
      "machines": 1,
      "lat": 37.912482,
      "lng": 140.124765,
      "area": "JP-06"
    },
    {
      "name": "わくわくランド新庄",
      "address": "山形県 新庄市 金沢 字大道上2033-4　ヤマザワ新庄店内",
      "machines": 1,
      "lat": 38.753179,
      "lng": 140.309423,
      "area": "JP-06"
    },
    {
      "name": "GiGO 新庄",
      "address": "山形県 新庄市 金沢沖 1068　ZEST新庄店内",
      "machines": 1,
      "lat": 38.764669,
      "lng": 140.308466,
      "area": "JP-06"
    },
    {
      "name": "フローラ・SAGAE",
      "address": "山形県 寒河江市 本町 2-8-3",
      "machines": 1,
      "lat": 38.376347,
      "lng": 140.276017,
      "area": "JP-06"
    },
    {
      "name": "モーリーファンタジー天童",
      "address": "山形県 天童市 芳賀タウン北 4-1-1　イオンモール天童　イオン天童店2F",
      "machines": 1,
      "lat": 38.344958,
      "lng": 140.36404,
      "area": "JP-06"
    },
    {
      "name": "ファミリーらんどDORA南陽",
      "address": "山形県 南陽市 郡山 578　ヤマザワ南陽ショッピングプラザ内",
      "machines": 1,
      "lat": 38.043423,
      "lng": 140.154861,
      "area": "JP-06"
    },
    {
      "name": "アミューズメントPLABIマックスバリュ白鷹",
      "address": "山形県 西置賜郡白鷹町 荒砥乙 535-1　マックスバリュ白鷹店内",
      "machines": 1,
      "lat": 38.185734,
      "lng": 140.102198,
      "area": "JP-06"
    },
    {
      "name": "ソユーゲームフィールド三川",
      "address": "山形県 東田川郡三川町 猪子字和田庫 128-1　イオンモール三川1F",
      "machines": 1,
      "lat": 38.815887,
      "lng": 139.835057,
      "area": "JP-06"
    },
    {
      "name": "モーリーファンタジー三川",
      "address": "山形県 東田川郡三川町 猪子字和田庫 128-1　イオンモール三川　イオン三川店2F",
      "machines": 1,
      "lat": 38.815459,
      "lng": 139.837165,
      "area": "JP-06"
    },
    {
      "name": "GiGO 庄内",
      "address": "山形県 東田川郡三川町 猪子字大堰端 326-6",
      "machines": 1,
      "lat": 38.819638,
      "lng": 139.834864,
      "area": "JP-06"
    },
    {
      "name": "ラウンドワンスタジアム郡山",
      "address": "福島県 郡山市 向河原町 4-55",
      "machines": 4,
      "lat": 37.402322,
      "lng": 140.395636,
      "area": "JP-07"
    },
    {
      "name": "namcoイオンタウン郡山",
      "address": "福島県 郡山市 松木町 2-88　イオンタウン郡山内",
      "machines": 4,
      "lat": 37.389365,
      "lng": 140.390478,
      "area": "JP-07"
    },
    {
      "name": "タイトーFステーション郡山アティ",
      "address": "福島県 郡山市 駅前 1-16-7　郡山アティ7F",
      "machines": 4,
      "lat": 37.397011,
      "lng": 140.387506,
      "area": "JP-07"
    },
    {
      "name": "ラウンドワンスタジアム福島",
      "address": "福島県 福島市 太田町 14-18",
      "machines": 3,
      "lat": 37.75261,
      "lng": 140.455994,
      "area": "JP-07"
    },
    {
      "name": "サープラ福島あそびタウン",
      "address": "福島県 福島市 栄町 1-1　パワーシティピボット内",
      "machines": 3,
      "lat": 37.754273,
      "lng": 140.460186,
      "area": "JP-07"
    },
    {
      "name": "namco郡山西部プラザ",
      "address": "福島県 郡山市 西ノ内 2-11-35　西部プラザ1F",
      "machines": 3,
      "lat": 37.40731,
      "lng": 140.362775,
      "area": "JP-07"
    },
    {
      "name": "タイトーFステーション郡山オリエントパーク",
      "address": "福島県 郡山市 郡山市安積町荒井字大久保 35-1",
      "machines": 3,
      "lat": 37.374476,
      "lng": 140.348755,
      "area": "JP-07"
    },
    {
      "name": "モーリーファンタジー福島",
      "address": "福島県 福島市 南矢野目 字西荒田50-17　イオン福島店3F",
      "machines": 2,
      "lat": 37.788397,
      "lng": 140.457748,
      "area": "JP-07"
    },
    {
      "name": "HapipiLand福島",
      "address": "福島県 福島市 鎌田 船戸前14-1　ドン・キホーテ福島店内",
      "machines": 2,
      "lat": 37.790362,
      "lng": 140.489092,
      "area": "JP-07"
    },
    {
      "name": "アミューズパーク福島",
      "address": "福島県 福島市 黒岩 字堂ノ後78",
      "machines": 2,
      "lat": 37.72604,
      "lng": 140.469616,
      "area": "JP-07"
    },
    {
      "name": "GiGO 福島南",
      "address": "福島県 福島市 黒岩字中島 7-2",
      "machines": 2,
      "lat": 37.727675,
      "lng": 140.466916,
      "area": "JP-07"
    },
    {
      "name": "GiGO 会津若松",
      "address": "福島県 会津若松市 町北町上荒久田字宮下 142",
      "machines": 2,
      "lat": 37.518425,
      "lng": 139.922048,
      "area": "JP-07"
    },
    {
      "name": "アミューズパーク会津",
      "address": "福島県 会津若松市 神指町南四合 字幕内南503-2",
      "machines": 2,
      "lat": 37.484345,
      "lng": 139.902296,
      "area": "JP-07"
    },
    {
      "name": "アミューズパーク郡山",
      "address": "福島県 郡山市 安積町日出山 2-80",
      "machines": 2,
      "lat": 37.374413,
      "lng": 140.383902,
      "area": "JP-07"
    },
    {
      "name": "モーリーファンタジーいわき小名浜",
      "address": "福島県 いわき市 小名浜 字辰巳町79　イオンモールいわき小名浜　イオンスタイルいわき小名浜4F",
      "machines": 2,
      "lat": 36.946737,
      "lng": 140.903048,
      "area": "JP-07"
    },
    {
      "name": "ソユーゲームフィールド小名浜",
      "address": "福島県 いわき市 小名浜字辰巳町 79　イオンモールいわき小名浜3F",
      "machines": 2,
      "lat": 36.946819,
      "lng": 140.903794,
      "area": "JP-07"
    },
    {
      "name": "アミューズパークいわき",
      "address": "福島県 いわき市 常磐関船町 宮下4-1",
      "machines": 2,
      "lat": 36.99362,
      "lng": 140.862457,
      "area": "JP-07"
    },
    {
      "name": "アミューズパークいわき神谷",
      "address": "福島県 いわき市 平下神谷 字馬洗7-1",
      "machines": 2,
      "lat": 37.065266,
      "lng": 140.942631,
      "area": "JP-07"
    },
    {
      "name": "モーリーファンタジーいわき",
      "address": "福島県 いわき市 平字三倉 68-1　イオンいわき店3F",
      "machines": 2,
      "lat": 37.051081,
      "lng": 140.898186,
      "area": "JP-07"
    },
    {
      "name": "アミューズメントPLABI鹿島SCエブリア",
      "address": "福島県 いわき市 鹿島町米田字日渡 5　鹿島SCエブリア2F",
      "machines": 2,
      "lat": 36.993729,
      "lng": 140.905107,
      "area": "JP-07"
    },
    {
      "name": "GiGO 白河",
      "address": "福島県 白河市 新高山 1-1　メガステージ白河内",
      "machines": 2,
      "lat": 37.119315,
      "lng": 140.194414,
      "area": "JP-07"
    },
    {
      "name": "ソユーエンターテイメントスタジオ須賀川",
      "address": "福島県 須賀川市 古河 105　イオンタウン須賀川B棟内",
      "machines": 2,
      "lat": 37.297382,
      "lng": 140.385159,
      "area": "JP-07"
    },
    {
      "name": "モーリーファンタジー白河西郷",
      "address": "福島県 西白河郡西郷村 小田倉 字岩下11-1　イオン白河西郷店2F",
      "machines": 2,
      "lat": 37.121686,
      "lng": 140.177334,
      "area": "JP-07"
    },
    {
      "name": "ザ・ビッグ福島大森",
      "address": "福島県 福島市 大森 字城ノ内35-1　ザ・ビッグ福島大森店内ゲームコーナー",
      "machines": 1,
      "lat": 37.734981,
      "lng": 140.454439,
      "area": "JP-07"
    },
    {
      "name": "GiGO 福島",
      "address": "福島県 福島市 本内中井 1-2",
      "machines": 1,
      "lat": 37.785235,
      "lng": 140.487515,
      "area": "JP-07"
    },
    {
      "name": "スイーツファクトリーパックン会津若松",
      "address": "福島県 会津若松市 神指町大字南四合 字幕内南154　アピタ会津若松店2F",
      "machines": 1,
      "lat": 37.483484,
      "lng": 139.904333,
      "area": "JP-07"
    },
    {
      "name": "GiGO 日和田",
      "address": "福島県 郡山市 日和田町字西中島 7-1",
      "machines": 1,
      "lat": 37.448201,
      "lng": 140.380413,
      "area": "JP-07"
    },
    {
      "name": "ゲームスポットPado郡山",
      "address": "福島県 郡山市 松木町 2-88　イオンタウン郡山内",
      "machines": 1,
      "lat": 37.391427,
      "lng": 140.388583,
      "area": "JP-07"
    },
    {
      "name": "キッズパーク ザ・モール郡山",
      "address": "福島県 郡山市 長者 1-1-56　ザ・モール郡山2F",
      "machines": 1,
      "lat": 37.397776,
      "lng": 140.369977,
      "area": "JP-07"
    },
    {
      "name": "GiGO 勿来",
      "address": "福島県 いわき市 勿来町四沢 字鍵田13",
      "machines": 1,
      "lat": 36.889072,
      "lng": 140.784563,
      "area": "JP-07"
    },
    {
      "name": "嶺宝スポーツセンター",
      "address": "福島県 いわき市 小名浜住吉字折返 2-2",
      "machines": 1,
      "lat": 36.974241,
      "lng": 140.890558,
      "area": "JP-07"
    },
    {
      "name": "GiGO ヨークベニマルいわき泉",
      "address": "福島県 いわき市 泉町滝尻 3-12-26　ヨークベニマルいわき泉店内",
      "machines": 1,
      "lat": 36.953677,
      "lng": 140.861317,
      "area": "JP-07"
    },
    {
      "name": "モーリーファンタジーベイシア白河",
      "address": "福島県 白河市 老久保 28　ベイシア白河モール1F",
      "machines": 1,
      "lat": 37.116817,
      "lng": 140.1995,
      "area": "JP-07"
    },
    {
      "name": "あそびのくにベイシア白河モール",
      "address": "福島県 白河市 老久保 28　ベイシア白河モール店内",
      "machines": 1,
      "lat": 37.116817,
      "lng": 140.1995,
      "area": "JP-07"
    },
    {
      "name": "アミューズパーク須賀川",
      "address": "福島県 須賀川市 大黒町 150-1",
      "machines": 1,
      "lat": 37.285626,
      "lng": 140.368694,
      "area": "JP-07"
    },
    {
      "name": "PALO喜多方",
      "address": "福島県 喜多方市 押切南 2-42-1　リオン・ドールガーデンスクエア喜多方西店1F",
      "machines": 1,
      "lat": 37.646807,
      "lng": 139.859592,
      "area": "JP-07"
    },
    {
      "name": "あそびのくにベイシア安達",
      "address": "福島県 二本松市 油井福岡 140",
      "machines": 1,
      "lat": 37.613234,
      "lng": 140.462963,
      "area": "JP-07"
    },
    {
      "name": "ビバサーカス船引",
      "address": "福島県 田村市 船引町船引 字原田9　船引パーク店内",
      "machines": 1,
      "lat": 37.439868,
      "lng": 140.571075,
      "area": "JP-07"
    },
    {
      "name": "モーリーファンタジー南相馬",
      "address": "福島県 南相馬市 原町区大木戸 金場77　イオンスーパーセンター南相馬店1F",
      "machines": 1,
      "lat": 37.636916,
      "lng": 140.942926,
      "area": "JP-07"
    },
    {
      "name": "SUPER CENTER PLANT-5 大玉",
      "address": "福島県 安達郡大玉村 大山 字仲江271",
      "machines": 1,
      "lat": 37.541653,
      "lng": 140.395415,
      "area": "JP-07"
    },
    {
      "name": "モーリーファンタジー鏡石",
      "address": "福島県 岩瀬郡鏡石町 桜岡 375-9　イオンスーパーセンター鏡石店1F",
      "machines": 1,
      "lat": 37.242475,
      "lng": 140.333693,
      "area": "JP-07"
    },
    {
      "name": "あひるのたまごヨークベニマル猪苗代",
      "address": "福島県 耶麻郡猪苗代町 梨木西 92　ヨークベニマル猪苗代店内",
      "machines": 1,
      "lat": 37.557319,
      "lng": 140.111237,
      "area": "JP-07"
    },
    {
      "name": "ゲームスペースA-3",
      "address": "福島県 西白河郡西郷村 豊作西 15-16-17",
      "machines": 1,
      "lat": 37.124556,
      "lng": 140.182612,
      "area": "JP-07"
    },
    {
      "name": "ユーズランド水戸内原",
      "address": "茨城県 水戸市 内原 2-1　イオンモール水戸内原2F",
      "machines": 6,
      "lat": 36.374174,
      "lng": 140.358185,
      "area": "JP-08"
    },
    {
      "name": "ゲームパニックつくば",
      "address": "茨城県 土浦市 中村東 1-1-1　サンタスワールド内",
      "machines": 6,
      "lat": 36.046383,
      "lng": 140.168223,
      "area": "JP-08"
    },
    {
      "name": "namco iiasつくば",
      "address": "茨城県 つくば市 研究学園 5-19　iiasつくば2F　2190",
      "machines": 6,
      "lat": 36.086429,
      "lng": 140.083812,
      "area": "JP-08"
    },
    {
      "name": "namcoイオンモールつくば",
      "address": "茨城県 つくば市 稲岡 66-1　イオンモールつくば3F",
      "machines": 4,
      "lat": 36.033661,
      "lng": 140.132054,
      "area": "JP-08"
    },
    {
      "name": "GiGO 水戸",
      "address": "茨城県 水戸市 宮町 1-7-44　コムボックス310　3F",
      "machines": 3,
      "lat": 36.369475,
      "lng": 140.474592,
      "area": "JP-08"
    },
    {
      "name": "ジョイフル本田ニューポートひたちなかアミューズパーク",
      "address": "茨城県 ひたちなか市 新光町 34-1　ジョイフル本田ニューポートひたちなか店内ゲームコーナー",
      "machines": 3,
      "lat": 36.407684,
      "lng": 140.586066,
      "area": "JP-08"
    },
    {
      "name": "アミューズビバ",
      "address": "茨城県 ひたちなか市 東大島 2-11-11",
      "machines": 3,
      "lat": 36.406406,
      "lng": 140.531973,
      "area": "JP-08"
    },
    {
      "name": "ファンタジープラザ上水戸",
      "address": "茨城県 水戸市 上水戸 2-9-10　MEGAドン・キホーテ上水戸店2F",
      "machines": 2,
      "lat": 36.389597,
      "lng": 140.445339,
      "area": "JP-08"
    },
    {
      "name": "モーリーファンタジー水戸内原",
      "address": "茨城県 水戸市 内原 2-1　イオンモール水戸内原　イオンスタイル水戸内原3F",
      "machines": 2,
      "lat": 36.374187,
      "lng": 140.358583,
      "area": "JP-08"
    },
    {
      "name": "GiGO 水戸南",
      "address": "茨城県 水戸市 千波町 2017-1",
      "machines": 2,
      "lat": 36.350325,
      "lng": 140.443,
      "area": "JP-08"
    },
    {
      "name": "ピンクパンサー水戸赤塚",
      "address": "茨城県 水戸市 河和田 1-1　フレスポ赤塚内",
      "machines": 2,
      "lat": 36.380442,
      "lng": 140.413753,
      "area": "JP-08"
    },
    {
      "name": "ゲームメガ水戸けやき台",
      "address": "茨城県 水戸市 酒門町 3276-1",
      "machines": 2,
      "lat": 36.338176,
      "lng": 140.483361,
      "area": "JP-08"
    },
    {
      "name": "GiGO ヒタチエ",
      "address": "茨城県 日立市 幸町 1-16-1　ヒタチエ5F",
      "machines": 2,
      "lat": 36.591805,
      "lng": 140.659016,
      "area": "JP-08"
    },
    {
      "name": "ゲームメガ日立",
      "address": "茨城県 日立市 東多賀町 5-10-10",
      "machines": 2,
      "lat": 36.548199,
      "lng": 140.630536,
      "area": "JP-08"
    },
    {
      "name": "楽市楽座イオンモール土浦",
      "address": "茨城県 土浦市 上高津 367　イオンモール土浦3F",
      "machines": 2,
      "lat": 36.080088,
      "lng": 140.180855,
      "area": "JP-08"
    },
    {
      "name": "モーリーファンタジー土浦",
      "address": "茨城県 土浦市 上高津 367　イオンモール土浦　イオン土浦店3F",
      "machines": 2,
      "lat": 36.080088,
      "lng": 140.180855,
      "area": "JP-08"
    },
    {
      "name": "ピンクパンサー土浦",
      "address": "茨城県 土浦市 木田余 4585-3",
      "machines": 2,
      "lat": 36.106546,
      "lng": 140.215198,
      "area": "JP-08"
    },
    {
      "name": "GAME PADDOCK +1 古河本店",
      "address": "茨城県 古河市 小堤 1916-1",
      "machines": 2,
      "lat": 36.206738,
      "lng": 139.75787,
      "area": "JP-08"
    },
    {
      "name": "モーリーファンタジー古河",
      "address": "茨城県 古河市 旭町 1-2-17　イオン古河店2F",
      "machines": 2,
      "lat": 36.197161,
      "lng": 139.719998,
      "area": "JP-08"
    },
    {
      "name": "GiGO 石岡",
      "address": "茨城県 石岡市 東大橋中峯 1976-1",
      "machines": 2,
      "lat": 36.198491,
      "lng": 140.303403,
      "area": "JP-08"
    },
    {
      "name": "STAR LIKE BOWL",
      "address": "茨城県 龍ケ崎市 小柴 5-1-2　サプラスクエア2F",
      "machines": 2,
      "lat": 35.932833,
      "lng": 140.160255,
      "area": "JP-08"
    },
    {
      "name": "タイトーFステーションイオンモール下妻",
      "address": "茨城県 下妻市 堀篭 972-1　イオンモール下妻2F",
      "machines": 2,
      "lat": 36.189545,
      "lng": 139.990167,
      "area": "JP-08"
    },
    {
      "name": "モーリーファンタジー下妻",
      "address": "茨城県 下妻市 堀篭 972-1　イオンモール下妻　イオン下妻店2F",
      "machines": 2,
      "lat": 36.190046,
      "lng": 139.989722,
      "area": "JP-08"
    },
    {
      "name": "モーリーファンタジー高萩",
      "address": "茨城県 高萩市 安良川 231-1　イオン高萩店2F",
      "machines": 2,
      "lat": 36.70586,
      "lng": 140.708008,
      "area": "JP-08"
    },
    {
      "name": "モーリーファンタジー笠間",
      "address": "茨城県 笠間市 赤坂 8　笠間SCポレポレシティ　イオン笠間店2F",
      "machines": 2,
      "lat": 36.390441,
      "lng": 140.249558,
      "area": "JP-08"
    },
    {
      "name": "モーリーファンタジーつくば",
      "address": "茨城県 つくば市 稲岡 66-1　イオンモールつくば　イオンつくば店3F",
      "machines": 2,
      "lat": 36.034556,
      "lng": 140.132766,
      "area": "JP-08"
    },
    {
      "name": "GiGO ひたちなか別館",
      "address": "茨城県 ひたちなか市 田中後 40-2",
      "machines": 2,
      "lat": 36.347591,
      "lng": 140.580341,
      "area": "JP-08"
    },
    {
      "name": "GiGO ショッピングセンターチェリオ鹿嶋",
      "address": "茨城県 鹿嶋市 宮中 290-1　SCチェリオ1F",
      "machines": 2,
      "lat": 35.959609,
      "lng": 140.643938,
      "area": "JP-08"
    },
    {
      "name": "ソユートイズニューヨーク守谷",
      "address": "茨城県 守谷市 百合ケ丘 3-249-1　イオンタウン守谷2F",
      "machines": 2,
      "lat": 35.944794,
      "lng": 139.990601,
      "area": "JP-08"
    },
    {
      "name": "常陸大宮SCピサーロ内PLABIファミリーゆうえん",
      "address": "茨城県 常陸大宮市 下村田 2387　常陸大宮SCピサーロ2F",
      "machines": 2,
      "lat": 36.522552,
      "lng": 140.430553,
      "area": "JP-08"
    },
    {
      "name": "アピナ下館",
      "address": "茨城県 筑西市 玉戸 1012-3",
      "machines": 2,
      "lat": 36.295473,
      "lng": 139.945672,
      "area": "JP-08"
    },
    {
      "name": "モーリーファンタジー佐原東",
      "address": "茨城県 稲敷市 西代 1495　西代SCパルナ2F",
      "machines": 2,
      "lat": 35.91754,
      "lng": 140.488984,
      "area": "JP-08"
    },
    {
      "name": "タイトーステーション佐原東",
      "address": "茨城県 稲敷市 西代 1495　西代SCパルナ2F",
      "machines": 2,
      "lat": 35.918566,
      "lng": 140.488147,
      "area": "JP-08"
    },
    {
      "name": "GiGO 神栖",
      "address": "茨城県 神栖市 神栖 1-8-1",
      "machines": 2,
      "lat": 35.897995,
      "lng": 140.644409,
      "area": "JP-08"
    },
    {
      "name": "モーリーファンタジー東海",
      "address": "茨城県 那珂郡東海村 舟石川 駅東4-1-1　イオン東海店2F",
      "machines": 2,
      "lat": 36.463297,
      "lng": 140.566727,
      "area": "JP-08"
    },
    {
      "name": "スタジオプリモマイム水戸",
      "address": "茨城県 水戸市 宮町 1-2-4　マイムビル1F",
      "machines": 1,
      "lat": 36.371478,
      "lng": 140.477426,
      "area": "JP-08"
    },
    {
      "name": "アミューズメントPLABI水戸オーパ",
      "address": "茨城県 水戸市 宮町 1-7-33　水戸オーパ7F",
      "machines": 1,
      "lat": 36.370141,
      "lng": 140.475532,
      "area": "JP-08"
    },
    {
      "name": "GiGO SEA MARK SQUARE",
      "address": "茨城県 日立市 東滑川町 5　SEA MARK SQUARE専門店棟1F",
      "machines": 1,
      "lat": 36.617025,
      "lng": 140.678727,
      "area": "JP-08"
    },
    {
      "name": "GiGO 日立",
      "address": "茨城県 日立市 田尻町 3-26-1",
      "machines": 1,
      "lat": 36.626431,
      "lng": 140.669858,
      "area": "JP-08"
    },
    {
      "name": "FESTA古河",
      "address": "茨城県 古河市 松並 2-18-10　マーケットシティ古河内",
      "machines": 1,
      "lat": 36.209723,
      "lng": 139.709637,
      "area": "JP-08"
    },
    {
      "name": "ゲオ三和",
      "address": "茨城県 古河市 諸川 1224",
      "machines": 1,
      "lat": 36.201357,
      "lng": 139.814027,
      "area": "JP-08"
    },
    {
      "name": "ファミリーらんどDORA古河",
      "address": "茨城県 古河市 雷電町 1-18　SCあかやまJOY1F",
      "machines": 1,
      "lat": 36.198802,
      "lng": 139.712896,
      "area": "JP-08"
    },
    {
      "name": "GiGO 龍ヶ崎",
      "address": "茨城県 龍ケ崎市 藤ケ丘 4-2-8",
      "machines": 1,
      "lat": 35.938539,
      "lng": 140.195942,
      "area": "JP-08"
    },
    {
      "name": "ピンクパンサー下妻",
      "address": "茨城県 下妻市 小島 884-10",
      "machines": 1,
      "lat": 36.170265,
      "lng": 139.966531,
      "area": "JP-08"
    },
    {
      "name": "エスカード牛久",
      "address": "茨城県 牛久市 牛久町 280　エスカード牛久1F",
      "machines": 1,
      "lat": 35.975322,
      "lng": 140.139999,
      "area": "JP-08"
    },
    {
      "name": "GiGO トナリエクレオつくば",
      "address": "茨城県 つくば市 吾妻 1-7-1　トナリエクレオ3F",
      "machines": 1,
      "lat": 36.080507,
      "lng": 140.111716,
      "area": "JP-08"
    },
    {
      "name": "スーパーセンタートライアルつくば学園都市",
      "address": "茨城県 つくば市 学園の森 3-12-6　スーパーセンタートライアルつくば学園都市店内ゲームコーナー",
      "machines": 1,
      "lat": 36.096139,
      "lng": 140.087699,
      "area": "JP-08"
    },
    {
      "name": "ゲームメガつくば",
      "address": "茨城県 つくば市 小野崎 177-2",
      "machines": 1,
      "lat": 36.076851,
      "lng": 140.104738,
      "area": "JP-08"
    },
    {
      "name": "GiGO デイズタウンつくば",
      "address": "茨城県 つくば市 竹園 1-9-2　デイズタウンつくば店B1F",
      "machines": 1,
      "lat": 36.077729,
      "lng": 140.115332,
      "area": "JP-08"
    },
    {
      "name": "勝田パークボウル",
      "address": "茨城県 ひたちなか市 田彦 1600　勝田パークボウル内ゲームコーナー",
      "machines": 1,
      "lat": 36.408981,
      "lng": 140.512362,
      "area": "JP-08"
    },
    {
      "name": "GiGO MEGAドン・キホーテ勝田",
      "address": "茨城県 ひたちなか市 石川町 1-1　MEGAドン・キホーテ勝田店2F",
      "machines": 1,
      "lat": 36.393112,
      "lng": 140.527458,
      "area": "JP-08"
    },
    {
      "name": "ファミリーガーデン守谷",
      "address": "茨城県 守谷市 久保ケ丘 2-1-1　カスミ守谷テラス店1F",
      "machines": 1,
      "lat": 35.967526,
      "lng": 139.975406,
      "area": "JP-08"
    },
    {
      "name": "ハローズガーデン江戸崎",
      "address": "茨城県 稲敷市 江戸崎甲 4836　江戸崎SCパンプ1F",
      "machines": 1,
      "lat": 35.959175,
      "lng": 140.315908,
      "area": "JP-08"
    },
    {
      "name": "ベイシア玉造",
      "address": "茨城県 行方市 玉造甲 642-1　ベイシア玉造店1Fゲームコーナー",
      "machines": 1,
      "lat": 36.101133,
      "lng": 140.415865,
      "area": "JP-08"
    },
    {
      "name": "スコナランド行方",
      "address": "茨城県 行方市 麻生 3288-50　セイミヤモール麻生店1F",
      "machines": 1,
      "lat": 36.01811,
      "lng": 140.49936,
      "area": "JP-08"
    },
    {
      "name": "タイトーステーションイオンタウン水戸南",
      "address": "茨城県 東茨城郡茨城町 長岡 3480-101　イオンタウン水戸南内",
      "machines": 1,
      "lat": 36.310779,
      "lng": 140.441215,
      "area": "JP-08"
    },
    {
      "name": "アミューズメントパレスワンダーヴュー阿見",
      "address": "茨城県 稲敷郡阿見町 阿見 2958　マイアミSC2F",
      "machines": 1,
      "lat": 36.042264,
      "lng": 140.210051,
      "area": "JP-08"
    },
    {
      "name": "ラウンドワンスタジアム宇都宮",
      "address": "栃木県 宇都宮市 江曽島町 2072-1",
      "machines": 4,
      "lat": 36.540686,
      "lng": 139.886893,
      "area": "JP-09"
    },
    {
      "name": "タイトーステーション宇都宮ベルモール",
      "address": "栃木県 宇都宮市 陽東 6-2-1　ベルモール宇都宮2F",
      "machines": 4,
      "lat": 36.556028,
      "lng": 139.928145,
      "area": "JP-09"
    },
    {
      "name": "GAME GET－Bee",
      "address": "栃木県 小山市 城山町 3-3-22",
      "machines": 4,
      "lat": 36.312695,
      "lng": 139.806608,
      "area": "JP-09"
    },
    {
      "name": "INTER PARK +1 宇都宮",
      "address": "栃木県 宇都宮市 インターパーク 6-5-1",
      "machines": 3,
      "lat": 36.488066,
      "lng": 139.905599,
      "area": "JP-09"
    },
    {
      "name": "namco宇都宮",
      "address": "栃木県 宇都宮市 簗瀬町 1606-1　フェドラP＆D UTSUNOMIYA",
      "machines": 3,
      "lat": 36.543863,
      "lng": 139.891566,
      "area": "JP-09"
    },
    {
      "name": "namcoフェドラP＆D佐野",
      "address": "栃木県 佐野市 高萩町 1340　フェドラP＆D SANO",
      "machines": 3,
      "lat": 36.297316,
      "lng": 139.605647,
      "area": "JP-09"
    },
    {
      "name": "タイトーFステーション小山",
      "address": "栃木県 小山市 喜沢 1475　おやまゆうえんハーヴェストウォークSC棟",
      "machines": 3,
      "lat": 36.332427,
      "lng": 139.808377,
      "area": "JP-09"
    },
    {
      "name": "ファミリーランドあそびのくにベイシア矢板",
      "address": "栃木県 矢板市 末広町 25-1　ベイシア矢板店内",
      "machines": 3,
      "lat": 36.804163,
      "lng": 139.934287,
      "area": "JP-09"
    },
    {
      "name": "テクモピアロックダムインターパーク",
      "address": "栃木県 宇都宮市 インターパーク 6-1-1　FKDショッピングモールインターパーク店2F",
      "machines": 2,
      "lat": 36.489939,
      "lng": 139.906432,
      "area": "JP-09"
    },
    {
      "name": "テクモピアパルテロン宇都宮",
      "address": "栃木県 宇都宮市 今泉町 237　FKDショッピングプラザ宇都宮店2F",
      "machines": 2,
      "lat": 36.574274,
      "lng": 139.900565,
      "area": "JP-09"
    },
    {
      "name": "コジマ×ビッグカメラ宇都宮テラス",
      "address": "栃木県 宇都宮市 宮みらい 1-1　コジマ×ビッグカメラ宇都宮テラス店内ゲームコーナー",
      "machines": 2,
      "lat": 36.559413,
      "lng": 139.900784,
      "area": "JP-09"
    },
    {
      "name": "スタジオプリモ宇都宮",
      "address": "栃木県 宇都宮市 曲師町 2-8　宇都宮フェスタB1F",
      "machines": 2,
      "lat": 36.560392,
      "lng": 139.884618,
      "area": "JP-09"
    },
    {
      "name": "GiGO 宇都宮",
      "address": "栃木県 宇都宮市 東宿郷 5-1-7",
      "machines": 2,
      "lat": 36.558171,
      "lng": 139.908818,
      "area": "JP-09"
    },
    {
      "name": "シーサイドリゾートアミューズメントパーク",
      "address": "栃木県 宇都宮市 睦町 7-3",
      "machines": 2,
      "lat": 36.563139,
      "lng": 139.860275,
      "area": "JP-09"
    },
    {
      "name": "タイトーFステーショントナリエ宇都宮",
      "address": "栃木県 宇都宮市 駅前通り 1-4-6　トナリエ宇都宮B1F",
      "machines": 2,
      "lat": 36.560464,
      "lng": 139.896997,
      "area": "JP-09"
    },
    {
      "name": "アドアーズアシコタウンあしかが",
      "address": "栃木県 足利市 大月町 3-2　アシコタウンあしかが内",
      "machines": 2,
      "lat": 36.33664,
      "lng": 139.477907,
      "area": "JP-09"
    },
    {
      "name": "ドラマ足利",
      "address": "栃木県 足利市 朝倉町 244-1",
      "machines": 2,
      "lat": 36.322317,
      "lng": 139.4503,
      "area": "JP-09"
    },
    {
      "name": "namcoイオン栃木",
      "address": "栃木県 栃木市 箱森町 37-9　イオン栃木店2F",
      "machines": 2,
      "lat": 36.39504,
      "lng": 139.724023,
      "area": "JP-09"
    },
    {
      "name": "タイトーステーションイオンモール佐野新都市",
      "address": "栃木県 佐野市 高萩町 1324-1　イオンモール佐野新都市2F",
      "machines": 2,
      "lat": 36.299138,
      "lng": 139.606275,
      "area": "JP-09"
    },
    {
      "name": "テクモピア鹿沼",
      "address": "栃木県 鹿沼市 東末広町 1073　福田屋鹿沼店3F",
      "machines": 2,
      "lat": 36.565335,
      "lng": 139.752996,
      "area": "JP-09"
    },
    {
      "name": "モーリーファンタジー今市",
      "address": "栃木県 日光市 豊田 79-1　イオン今市店2F",
      "machines": 2,
      "lat": 36.730705,
      "lng": 139.703592,
      "area": "JP-09"
    },
    {
      "name": "KOKADOタウン小山",
      "address": "栃木県 小山市 中久喜 1467-1　イオンモール小山2F",
      "machines": 2,
      "lat": 36.322077,
      "lng": 139.840966,
      "area": "JP-09"
    },
    {
      "name": "モーリーファンタジー小山",
      "address": "栃木県 小山市 中久喜 1467-1　イオンモール小山　イオン小山店2F",
      "machines": 2,
      "lat": 36.32214,
      "lng": 139.840901,
      "area": "JP-09"
    },
    {
      "name": "namcoロブレ小山",
      "address": "栃木県 小山市 中央町 3-7-1　ロブレ小山店4F",
      "machines": 2,
      "lat": 36.31255,
      "lng": 139.804928,
      "area": "JP-09"
    },
    {
      "name": "アピナ小山",
      "address": "栃木県 小山市 駅南町 4-27-18",
      "machines": 2,
      "lat": 36.300073,
      "lng": 139.809051,
      "area": "JP-09"
    },
    {
      "name": "モーリーファンタジー真岡",
      "address": "栃木県 真岡市 台町 2668　イオンタウン真岡　ザ・ビッグエクストラ真岡店1F",
      "machines": 2,
      "lat": 36.432607,
      "lng": 140.00167,
      "area": "JP-09"
    },
    {
      "name": "大田原スポーツランド",
      "address": "栃木県 那須塩原市 一区町 104-60",
      "machines": 2,
      "lat": 36.851887,
      "lng": 139.993297,
      "area": "JP-09"
    },
    {
      "name": "GiGO 西那須野",
      "address": "栃木県 那須塩原市 南郷屋 2-106-27",
      "machines": 2,
      "lat": 36.895119,
      "lng": 139.982238,
      "area": "JP-09"
    },
    {
      "name": "モーリーファンタジー那須塩原",
      "address": "栃木県 那須塩原市 島方 455　イオンタウン那須塩原　ザ・ビッグエクストラ那須塩原店1F",
      "machines": 2,
      "lat": 36.929083,
      "lng": 140.006057,
      "area": "JP-09"
    },
    {
      "name": "モーリーファンタジーさくら",
      "address": "栃木県 さくら市 櫻野 1551　イオンタウンさくら　ザ・ビッグエクストラさくら店1F",
      "machines": 2,
      "lat": 36.689675,
      "lng": 139.979119,
      "area": "JP-09"
    },
    {
      "name": "アピナ宇都宮",
      "address": "栃木県 河内郡上三川町 磯岡 421-1　ジョイフル本田宇都宮店2F",
      "machines": 2,
      "lat": 36.480194,
      "lng": 139.908222,
      "area": "JP-09"
    },
    {
      "name": "ファンファン那須",
      "address": "栃木県 那須郡那須町 高久甲 字愛宕前484-1　イオンタウン那須内",
      "machines": 2,
      "lat": 36.985458,
      "lng": 140.062239,
      "area": "JP-09"
    },
    {
      "name": "GiGO ヨークベニマル御幸ヶ原",
      "address": "栃木県 宇都宮市 御幸ケ原町 50-1　ヨークベニマル御幸ヶ原店内",
      "machines": 1,
      "lat": 36.592374,
      "lng": 139.927889,
      "area": "JP-09"
    },
    {
      "name": "ファンタジーランドガルー宇都宮",
      "address": "栃木県 宇都宮市 江曽島本町 22-7　ドン・キホーテ アピタ宇都宮店2F",
      "machines": 1,
      "lat": 36.531592,
      "lng": 139.866909,
      "area": "JP-09"
    },
    {
      "name": "スコナランドトライアル宇都宮",
      "address": "栃木県 宇都宮市 睦町 5-5　スーパーセンタートライアル宇都宮店2F",
      "machines": 1,
      "lat": 36.561489,
      "lng": 139.862275,
      "area": "JP-09"
    },
    {
      "name": "スコナランド宇都宮",
      "address": "栃木県 宇都宮市 馬場通り 2-3-12　MEGAドン・キホーテ　ラパーク宇都宮店B1F",
      "machines": 1,
      "lat": 36.560728,
      "lng": 139.8852,
      "area": "JP-09"
    },
    {
      "name": "PALO足利",
      "address": "栃木県 足利市 朝倉町 2-21-16　ヨークタウン足利1F",
      "machines": 1,
      "lat": 36.316444,
      "lng": 139.445192,
      "area": "JP-09"
    },
    {
      "name": "アミパ佐野",
      "address": "栃木県 佐野市 茂呂山町字茂呂山 5-1",
      "machines": 1,
      "lat": 36.295019,
      "lng": 139.594796,
      "area": "JP-09"
    },
    {
      "name": "モーリーファンタジー佐野新都市",
      "address": "栃木県 佐野市 高萩町 1324-1　イオンモール佐野新都市　イオン佐野新都市店2F",
      "machines": 1,
      "lat": 36.299138,
      "lng": 139.606275,
      "area": "JP-09"
    },
    {
      "name": "GiGO 日光",
      "address": "栃木県 日光市 芹沼 1448-1",
      "machines": 1,
      "lat": 36.741095,
      "lng": 139.71014,
      "area": "JP-09"
    },
    {
      "name": "ラスベガス",
      "address": "栃木県 日光市 鬼怒川温泉滝 813　あさやホテル内ゲームコーナー",
      "machines": 1,
      "lat": 36.835224,
      "lng": 139.719821,
      "area": "JP-09"
    },
    {
      "name": "ゲオ間々田",
      "address": "栃木県 小山市 大字間々田 807",
      "machines": 1,
      "lat": 36.272963,
      "lng": 139.771558,
      "area": "JP-09"
    },
    {
      "name": "GiGO 小山",
      "address": "栃木県 小山市 東城南 1-1-18",
      "machines": 1,
      "lat": 36.298977,
      "lng": 139.810164,
      "area": "JP-09"
    },
    {
      "name": "ゲオ並木",
      "address": "栃木県 真岡市 並木町 4-6-23",
      "machines": 1,
      "lat": 36.445546,
      "lng": 140.001472,
      "area": "JP-09"
    },
    {
      "name": "大田原カーニバル",
      "address": "栃木県 大田原市 美原 1-3537-2　東武宇都宮百貨店大田原店3F",
      "machines": 1,
      "lat": 36.862163,
      "lng": 140.009217,
      "area": "JP-09"
    },
    {
      "name": "あそびのくにベイシア那須塩原",
      "address": "栃木県 那須塩原市 緑 2-1155ー11　ベイシア那須塩原店内",
      "machines": 1,
      "lat": 36.869032,
      "lng": 140.000962,
      "area": "JP-09"
    },
    {
      "name": "あそびのくにベイシアさくら氏家",
      "address": "栃木県 さくら市 氏家 725　ベイシアさくら氏家店内",
      "machines": 1,
      "lat": 36.666743,
      "lng": 139.960243,
      "area": "JP-09"
    },
    {
      "name": "ベイシア鳥山店あそびのくに",
      "address": "栃木県 那須烏山市 城東 1883-2　ベイシア鳥山店内",
      "machines": 1,
      "lat": 36.660052,
      "lng": 140.158848,
      "area": "JP-09"
    },
    {
      "name": "ホテルサンバレー那須",
      "address": "栃木県 那須郡那須町 大字湯本 203",
      "machines": 1,
      "lat": 37.086395,
      "lng": 140.004604,
      "area": "JP-09"
    },
    {
      "name": "ホテルエピナール那須ゲームプラザ",
      "address": "栃木県 那須郡那須町 高久丙 1　ホテルエピナール那須　アネックスタワー1F",
      "machines": 1,
      "lat": 37.049662,
      "lng": 140.023788,
      "area": "JP-09"
    },
    {
      "name": "ユーズランド高崎",
      "address": "群馬県 高崎市 棟高町 1400　イオンモール高崎2F",
      "machines": 6,
      "lat": 36.390421,
      "lng": 139.006695,
      "area": "JP-10"
    },
    {
      "name": "ユーズランド太田",
      "address": "群馬県 太田市 石原町 81　イオンモール太田2F",
      "machines": 6,
      "lat": 36.294046,
      "lng": 139.400443,
      "area": "JP-10"
    },
    {
      "name": "群馬レジャーランド太田",
      "address": "群馬県 太田市 西矢島町 162-2",
      "machines": 6,
      "lat": 36.268056,
      "lng": 139.375949,
      "area": "JP-10"
    },
    {
      "name": "namcoけやきウォーク前橋",
      "address": "群馬県 前橋市 文京町 2-1-1　けやきウォーク前橋2F",
      "machines": 5,
      "lat": 36.379141,
      "lng": 139.078086,
      "area": "JP-10"
    },
    {
      "name": "群馬レジャーランド高崎駅東口",
      "address": "群馬県 高崎市 江木町 333-1　高崎EXビルB1・2F",
      "machines": 4,
      "lat": 36.329881,
      "lng": 139.012917,
      "area": "JP-10"
    },
    {
      "name": "ラウンドワンスタジアム前橋",
      "address": "群馬県 前橋市 天川大島町 1101-1",
      "machines": 3,
      "lat": 36.368732,
      "lng": 139.105228,
      "area": "JP-10"
    },
    {
      "name": "タイトーFステーション高崎オーパ",
      "address": "群馬県 高崎市 八島町 46-1　高崎オーパ7F",
      "machines": 3,
      "lat": 36.323081,
      "lng": 139.011073,
      "area": "JP-10"
    },
    {
      "name": "GiGO スマーク伊勢崎",
      "address": "群馬県 伊勢崎市 西小保方町 368　スマーク伊勢崎内",
      "machines": 3,
      "lat": 36.339174,
      "lng": 139.233043,
      "area": "JP-10"
    },
    {
      "name": "群馬レジャーランド伊勢崎",
      "address": "群馬県 伊勢崎市 連取町 3066-1",
      "machines": 3,
      "lat": 36.318298,
      "lng": 139.172337,
      "area": "JP-10"
    },
    {
      "name": "群馬レジャーランド渋川",
      "address": "群馬県 渋川市 八木原 1364",
      "machines": 3,
      "lat": 36.474272,
      "lng": 139.015353,
      "area": "JP-10"
    },
    {
      "name": "群馬レジャーランド藤岡",
      "address": "群馬県 藤岡市 中 2002-1",
      "machines": 3,
      "lat": 36.274353,
      "lng": 139.072087,
      "area": "JP-10"
    },
    {
      "name": "ハローズガーデン前橋",
      "address": "群馬県 前橋市 文京町 2-1-1　けやきウォーク前橋　アピタ前橋店2F",
      "machines": 2,
      "lat": 36.378344,
      "lng": 139.078508,
      "area": "JP-10"
    },
    {
      "name": "群馬レジャーランド前橋",
      "address": "群馬県 前橋市 日吉町 4-37-1",
      "machines": 2,
      "lat": 36.404983,
      "lng": 139.079423,
      "area": "JP-10"
    },
    {
      "name": "モーリーファンタジー倉賀野",
      "address": "群馬県 高崎市 倉賀野町 4691-1　MrMax倉賀野店1F",
      "machines": 2,
      "lat": 36.300264,
      "lng": 139.056204,
      "area": "JP-10"
    },
    {
      "name": "モーリーファンタジー高崎",
      "address": "群馬県 高崎市 棟高町 1400　イオンモール高崎　イオン高崎店3F",
      "machines": 2,
      "lat": 36.390476,
      "lng": 139.006536,
      "area": "JP-10"
    },
    {
      "name": "アピナ太田",
      "address": "群馬県 太田市 内ケ島町 907-1",
      "machines": 2,
      "lat": 36.282971,
      "lng": 139.398425,
      "area": "JP-10"
    },
    {
      "name": "モーリーファンタジー太田",
      "address": "群馬県 太田市 石原町 81　イオンモール太田　イオン太田店2F",
      "machines": 2,
      "lat": 36.294157,
      "lng": 139.400442,
      "area": "JP-10"
    },
    {
      "name": "GiGO 館林",
      "address": "群馬県 館林市 小桑原町 949-1",
      "machines": 2,
      "lat": 36.235221,
      "lng": 139.520329,
      "area": "JP-10"
    },
    {
      "name": "ベイシア渋川店あそびのくに",
      "address": "群馬県 渋川市 行幸田 字砂田296　ベイシア渋川店2F",
      "machines": 2,
      "lat": 36.472269,
      "lng": 139.000113,
      "area": "JP-10"
    },
    {
      "name": "アピナ吉岡",
      "address": "群馬県 北群馬郡吉岡町 大久保 364-1　ジョイホンパーク吉岡2F",
      "machines": 2,
      "lat": 36.435501,
      "lng": 139.018599,
      "area": "JP-10"
    },
    {
      "name": "タイトーFステーション前橋リリカ",
      "address": "群馬県 前橋市 国領町 2-14-1　前橋リリカ2F",
      "machines": 1,
      "lat": 36.404624,
      "lng": 139.068074,
      "area": "JP-10"
    },
    {
      "name": "ベイシア大胡モール店あそびのくに",
      "address": "群馬県 前橋市 堀越町 377",
      "machines": 1,
      "lat": 36.415121,
      "lng": 139.144846,
      "area": "JP-10"
    },
    {
      "name": "モーリーファンタジーガーデン前橋",
      "address": "群馬県 前橋市 小屋原町 472-1　ガーデン前橋1F",
      "machines": 1,
      "lat": 36.355965,
      "lng": 139.12981,
      "area": "JP-10"
    },
    {
      "name": "カインズ前橋みなみモール",
      "address": "群馬県 前橋市 新堀町 18　パワーモール前橋みなみ　カインズ前橋みなみモール店1Fゲームコーナー",
      "machines": 1,
      "lat": 36.330201,
      "lng": 139.094743,
      "area": "JP-10"
    },
    {
      "name": "namcoアカマル",
      "address": "群馬県 高崎市 中尾町 44-1　アカマル2F",
      "machines": 1,
      "lat": 36.375658,
      "lng": 139.033488,
      "area": "JP-10"
    },
    {
      "name": "ハローズガーデン高崎",
      "address": "群馬県 高崎市 矢中町 字渕ノ内668-1　アピタ高崎店2F",
      "machines": 1,
      "lat": 36.309821,
      "lng": 139.054213,
      "area": "JP-10"
    },
    {
      "name": "GiGO MEGAドン・キホーテ桐生",
      "address": "群馬県 桐生市 永楽町 5-10　MEGAドン・キホーテ桐生店3F",
      "machines": 1,
      "lat": 36.412494,
      "lng": 139.335855,
      "area": "JP-10"
    },
    {
      "name": "ハローズガーデン伊勢崎東",
      "address": "群馬県 伊勢崎市 三室町 5330　MEGAドン・キホーテUNY伊勢崎東店2F",
      "machines": 1,
      "lat": 36.32903,
      "lng": 139.233627,
      "area": "JP-10"
    },
    {
      "name": "namco伊勢崎",
      "address": "群馬県 伊勢崎市 宮子町 3402-6",
      "machines": 1,
      "lat": 36.33024,
      "lng": 139.164584,
      "area": "JP-10"
    },
    {
      "name": "ベイシア西部モール",
      "address": "群馬県 伊勢崎市 宮子町 3423-15　スーパーモールいせさき　ベイシア西部モール店内ゲームコーナー",
      "machines": 1,
      "lat": 36.331251,
      "lng": 139.161962,
      "area": "JP-10"
    },
    {
      "name": "インターワールド伊勢崎",
      "address": "群馬県 伊勢崎市 宮子町 3425-4",
      "machines": 1,
      "lat": 36.331521,
      "lng": 139.162503,
      "area": "JP-10"
    },
    {
      "name": "モーリーファンタジーミスターマックス伊勢崎",
      "address": "群馬県 伊勢崎市 宮子町 3556-1　ハイパーモールメルクス伊勢崎　MrMax伊勢崎店1F",
      "machines": 1,
      "lat": 36.329823,
      "lng": 139.150984,
      "area": "JP-10"
    },
    {
      "name": "薮塚バッティングセンター",
      "address": "群馬県 太田市 大原町 2256-6",
      "machines": 1,
      "lat": 36.359495,
      "lng": 139.269913,
      "area": "JP-10"
    },
    {
      "name": "GiGO 新田ショッピングセンターニコ・モール",
      "address": "群馬県 太田市 新田市野井町 592-13　ニコモール新田店1F",
      "machines": 1,
      "lat": 36.303839,
      "lng": 139.30178,
      "area": "JP-10"
    },
    {
      "name": "GiGO 太田",
      "address": "群馬県 太田市 西矢島町 575",
      "machines": 1,
      "lat": 36.274554,
      "lng": 139.378084,
      "area": "JP-10"
    },
    {
      "name": "GiGO 沼田",
      "address": "群馬県 沼田市 下久屋町 1100-1",
      "machines": 1,
      "lat": 36.656776,
      "lng": 139.078069,
      "area": "JP-10"
    },
    {
      "name": "ファンタジーランドガルー館林",
      "address": "群馬県 館林市 楠町 3648-1　アゼリアモールB館2F",
      "machines": 1,
      "lat": 36.242486,
      "lng": 139.568919,
      "area": "JP-10"
    },
    {
      "name": "渋川スカイランドパーク",
      "address": "群馬県 渋川市 金井 2843-3",
      "machines": 1,
      "lat": 36.504717,
      "lng": 138.961818,
      "area": "JP-10"
    },
    {
      "name": "宝島大間々",
      "address": "群馬県 みどり市 大間々町大間々 40　さくらもーる2F",
      "machines": 1,
      "lat": 36.413542,
      "lng": 139.281379,
      "area": "JP-10"
    },
    {
      "name": "ベイシア吾妻",
      "address": "群馬県 吾妻郡東吾妻町 原町 5081　ベイシア吾妻店内ゲームコーナー",
      "machines": 1,
      "lat": 36.573086,
      "lng": 138.82225,
      "area": "JP-10"
    },
    {
      "name": "ホテルヴィレッジ",
      "address": "群馬県 吾妻郡草津町 草津 618",
      "machines": 1,
      "lat": 36.627234,
      "lng": 138.605025,
      "area": "JP-10"
    },
    {
      "name": "ベイシア月夜野モール店あそびのくに",
      "address": "群馬県 利根郡みなかみ町 下牧 482　ベイシア月夜野モール店内",
      "machines": 1,
      "lat": 36.694379,
      "lng": 138.988498,
      "area": "JP-10"
    },
    {
      "name": "アミューズメントPLABIジョイフル本田千代田",
      "address": "群馬県 邑楽郡千代田町 萱野 813-1　ジョイフル本田千代田店内2F",
      "machines": 1,
      "lat": 36.206839,
      "lng": 139.472963,
      "area": "JP-10"
    },
    {
      "name": "namcoイオンレイクタウンmori北",
      "address": "埼玉県 越谷市 レイクタウン 3-1-1　イオンレイクタウンmori3F",
      "machines": 10,
      "lat": 35.883752,
      "lng": 139.828327,
      "area": "JP-11"
    },
    {
      "name": "ユーズランド越谷",
      "address": "埼玉県 越谷市 レイクタウン 4-2-2　イオンレイクタウンkaze3F",
      "machines": 8,
      "lat": 35.878115,
      "lng": 139.824865,
      "area": "JP-11"
    },
    {
      "name": "ゲームファクトリーマグマ草加",
      "address": "埼玉県 草加市 氷川町 2125-1",
      "machines": 5,
      "lat": 35.828238,
      "lng": 139.802514,
      "area": "JP-11"
    },
    {
      "name": "namcoステラタウン",
      "address": "埼玉県 さいたま市北区 宮原町 1-854-1　ステラタウン3F",
      "machines": 4,
      "lat": 35.933125,
      "lng": 139.623021,
      "area": "JP-11"
    },
    {
      "name": "アミューズランドモナコ川越",
      "address": "埼玉県 川越市 新富町 2-4-1",
      "machines": 4,
      "lat": 35.913294,
      "lng": 139.483138,
      "area": "JP-11"
    },
    {
      "name": "ラウンドワンスタジアム所沢",
      "address": "埼玉県 所沢市 東町 5-22　TOCOTOCOSQUARE所沢6F･7F",
      "machines": 4,
      "lat": 35.788861,
      "lng": 139.469562,
      "area": "JP-11"
    },
    {
      "name": "ラウンドワンスタジアム入間",
      "address": "埼玉県 入間市 小谷田 3-7-25",
      "machines": 4,
      "lat": 35.827991,
      "lng": 139.376003,
      "area": "JP-11"
    },
    {
      "name": "ラウンドワンスタジアム朝霞",
      "address": "埼玉県 朝霞市 膝折町 2-16-10",
      "machines": 4,
      "lat": 35.790282,
      "lng": 139.579647,
      "area": "JP-11"
    },
    {
      "name": "サープラ八潮あそびタウン",
      "address": "埼玉県 八潮市 大瀬 1-1-3　フレスポ八潮3F",
      "machines": 4,
      "lat": 35.808352,
      "lng": 139.843842,
      "area": "JP-11"
    },
    {
      "name": "ゲームパニック三郷",
      "address": "埼玉県 三郷市 ピアラシティ 1-1-200",
      "machines": 4,
      "lat": 35.842186,
      "lng": 139.854868,
      "area": "JP-11"
    },
    {
      "name": "ラウンドワンスタジアムららぽーと新三郷",
      "address": "埼玉県 三郷市 新三郷ららシティ 3-1-1　ららぽーと新三郷2F　20000番",
      "machines": 4,
      "lat": 35.858898,
      "lng": 139.866786,
      "area": "JP-11"
    },
    {
      "name": "埼玉レジャーランド大宮ラクーン",
      "address": "埼玉県 さいたま市大宮区 宮町 1-60　大宮ラクーン5F",
      "machines": 3,
      "lat": 35.907751,
      "lng": 139.62568,
      "area": "JP-11"
    },
    {
      "name": "埼玉レジャーランド大宮駅東口",
      "address": "埼玉県 さいたま市大宮区 宮町 1-8　大宮セントラルビルB1F～2F",
      "machines": 3,
      "lat": 35.907991,
      "lng": 139.624549,
      "area": "JP-11"
    },
    {
      "name": "タイトーFステーションイオンスタイル大宮西口駅前",
      "address": "埼玉県 さいたま市大宮区 桜木町 2-3　イオンスタイル大宮西口駅前店7F",
      "machines": 3,
      "lat": 35.90689,
      "lng": 139.621793,
      "area": "JP-11"
    },
    {
      "name": "GiGO イオンモール浦和美園",
      "address": "埼玉県 さいたま市緑区 美園 5-10-1　イオンモール浦和美園2F",
      "machines": 3,
      "lat": 35.891227,
      "lng": 139.731012,
      "area": "JP-11"
    },
    {
      "name": "アピナ川越",
      "address": "埼玉県 川越市 泉町 1-1　ウニクス南古谷シネマ棟1F",
      "machines": 3,
      "lat": 35.903719,
      "lng": 139.515912,
      "area": "JP-11"
    },